20,08,346,35*7E
$GPRMC,104426.591,A,5920.7019,N,01803.2893,E,0.117980,320.93,141204,,*0F
$GPGGA,104427.591,5920.7009,N,01803.2938,E,1,05,3.3,78.2,M,23.2,M,0.0,0000*4A
$GPGSA,A,3,05,24,17,30,02,,,,,,,,5.6,3.3,4.5*34
$GPGSV,3,1,12,30,72,254,30,05,70,125,39,24,37,083,43,02,36,113,45*7B
$GPGSV,3,2,12,04,32,059,34,01,27,307,00,14,26,256,00,06,24,219,00*7F
$GPGSV,3,3,12,17,22,135,40,25,20,311,31,09,19,159,25,20,08,346,34*7C
$GPRMC,104427.591,A,5920.7009,N,01803.2938,E,0.146345,320.93,141204,,*08
$GPGGA,104428.591,5920.7008,N,01803.2943,E,1,05,3.3,78.9,M,23.2,M,0.0,0000*43
$GPGSA,A,3,05,24,17,30,02,,,,,,,,5.6,3.3,4.5*34
$GPGSV,3,1,12,30,72,254,31,05,70,125,41,24,37,083,44,02,36,113,46*71
$GPGSV,3,2,12,04,32,059,34,01,27,307,00,14,26,256,00,06,24,219,00*7F
$GPGSV,3,3,12,17,22,135,40,25,20,311,30,09,19,159,25,20,08,346,35*7C
$GPRMC,104428.591,A,5920.7008,N,01803.2943,E,0.164145,320.93,141204,,*08
$GPGGA,104429.591,5920.7012,N,01803.2931,E,1,05,3.3,77.1,M,23.2,M,0.0,0000*4B
$GPGSA,A,3,05,24,17,30,02,,,,,,,,5.6,3.3,4.5*34
$GPGSV,3,1,12,30,72,254,31,05,70,125,40,24,37,083,43,02,36,113,46*77
$GPGSV,3,2,12,04,32,059,34,01,27,307,00,14,26,256,00,06,24,219,00*7F
$GPGSV,3,3,12,17,22,135,40,25,20,311,30,09,19,159,25,20,08,346,37*7E
$GPRMC,104429.591,A,5920.7012,N,01803.2931,E,0.150242,320.93,141204,,*04
$GPGGA,104430.591,5920.7011,N,01803.2935,E,1,05,3.3,77.5,M,23.2,M,0.0,0000*40
$GPGSA,A,3,05,24,17,30,02,,,,,,,,5.6,3.3,4.5*34
$GPGSV,3,1,12,30,72,254,32,05,70,125,41,24,37,083,43,02,36,113,46*75
$GPGSV,3,2,12,04,32,059,34,01,27,307,00,14,26,256,00,06,24,219,00*7F
$GPGSV,3,3,12,17,22,135,40,25,20,311,26,09,19,159,25,20,08,346,38*76
$GPRMC,104430.591,A,5920.7011,N,01803.2935,E,0.169002,320.93,141204,,*07
$GPGGA,104431.591,5920.7011,N,01803.2939,E,1,05,3.3,77.9,M,23.2,M,0.0,0000*41
$GPGSA,A,3,05,24,17,30,02,,,,,,,,5.6,3.3,4.5*34
$GPGSV,3,1,12,30,72,254,30,05,70,125,40,24,37,083,43,02,36,113,46*76
$GPGSV,3,2,12,04,32,059,32,01,27,307,29,14,26,256,00,06,24,219,00*72
$GPGSV,3,3,12,17,22,135,40,25,20,311,26,09,19,159,24,20,08,346,39*76
$GPRMC,104431.591,A,5920.7011,N,01803.2939,E,0.221061,320.93,141204,,*00
$GPGGA,104432.591,5920.7013,N,01803.2940,E,1,04,8.9,77.9,M,23.2,M,0.0,0000*4E
$GPGSA,A,3,05,24,17,02,,,,,,,,,12.9,8.9,9.2*05
$GPGSV,3,1,12,30,72,254,26,05,70,125,46,24,37,083,44,02,36,113,45*73
$GPGSV,3,2,12,04,32,059,33,01,27,307,29,14,26,256,00,06,24,219,00*73
$GPGSV,3,3,12,17,22,135,40,25,20,311,29,09,19,159,24,20,08,346,36*76
$GPRMC,104432.591,A,5920.7013,N,01803.2940,E,1.558939,320.93,141204,,*03
$GPGGA,104433.591,5920.7019,N,01803.2940,E,1,04,8.9,77.8,M,23.2,M,0.0,0000*44
$GPGSA,A,3,05,24,17,02,,,,,,,,,12.9,8.9,9.2*05
$GPGSV,3,1,12,30,72,254,26,05,70,125,45,24,37,083,43,02,36,113,45*77
$GPGSV,3,2,12,04,32,059,28,01,27,307,29,14,26,256,00,06,24,219,00*79
$GPGSV,3,3,12,17,22,135,39,25,20,311,29,09,19,159,25,20,08,346,36*79
$GPRMC,104433.591,A,5920.7019,N,01803.2940,E,2.483712,0.03,141204,,*03
$GPGGA,104434.591,5920.7026,N,01803.2938,E,1,04,8.9,77.7,M,23.2,M,0.0,0000*4F
$GPGSA,A,3,05,24,17,02,,,,,,,,,12.9,8.9,9.2*05
$GPGSV,3,1,12,30,72,254,26,05,70,125,46,24,37,083,43,02,36,113,45*74
$GPGSV,3,2,12,04,32,059,28,01,27,307,29,14,26,256,00,06,24,219,00*79
$GPGSV,3,3,12,17,22,135,39,25,20,311,29,09,19,159,26,20,08,346,36*7A
$GPRMC,104434.591,A,5920.7026,N,01803.2938,E,2.742301,355.64,141204,,*0D
$GPGGA,104435.591,5920.7033,N,01803.2935,E,1,04,8.9,77.5,M,23.2,M,0.0,0000*45
$GPGSA,A,3,05,24,17,02,,,,,,,,,12.9,8.9,9.2*05
$GPGSV,3,1,12,30,72,254,26,05,70,125,46,24,37,083,43,02,36,113,45*74
$GPGSV,3,2,12,04,32,059,28,01,27,307,29,14,26,256,00,06,24,219,00*79
$GPGSV,3,3,12,17,22,135,41,25,20,311,30,09,19,159,27,20,08,346,37*7D
$GPRMC,104435.591,A,5920.7033,N,01803.2935,E,2.385788,351.58,141204,,*04
$GPGGA,104436.591,5920.7038,N,01803.2931,E,1,04,8.9,77.3,M,23.2,M,0.0,0000*4F
$GPGSA,A,3,05,24,17,02,,,,,,,,,12.9,8.9,9.2*05
$GPGSV,3,1,12,30,72,254,26,05,70,125,46,24,37,083,42,02,36,113,44*74
$GPGSV,3,2,12,04,32,059,26,01,27,307,32,14,26,256,29,06,24,219,00*76
$GPGSV,3,3,12,17,22,135,43,25,20,311,30,09,19,159,27,20,08,346,34*7C
$GPRMC,104436.591,A,5920.7038,N,01803.2931,E,1.597616,351.58,141204,,*08
$GPGGA,104437.591,5920.7043,N,01803.2926,E,1,04,8.9,77.0,M,23.2,M,0.0,0000*47
$GPGSA,A,3,05,24,17,02,,,,,,,,,12.9,8.9,9.2*05
$GPGSV,3,1,12,30,72,254,26,05,70,125,46,24,37,083,42,02,36,113,45*75
$GPGSV,3,2,12,04,32,059,25,01,27,307,32,14,26,256,28,06,24,219,00*74
$GPGSV,3,3,12,17,22,135,38,25,20,311,29,09,19,159,27,20,08,346,32*7E
$GPRMC,104437.591,A,5920.7043,N,01803.2926,E,1.999958,345.27,141204,,*09
$GPGGA,104438.590,5920.7048,N,01803.2920,E,1,04,8.9,76.8,M,23.2,M,0.0,0000*4D
$GPGSA,A,3,05,24,17,02,,,,,,,,,12.9,8.9,9.2*05
$GPGSV,3,1,12,30,72,254,26,05,70,125,45,24,37,083,43,02,36,113,46*74
$GPGSV,3,2,12,04,32,059,25,01,27,307,32,14,26,256,30,06,24,219,00*7D
$GPGSV,3,3,12,17,22,135,38,25,20,311,28,09,19,159,27,20,08,346,32*7F
$GPRMC,104438.590,A,5920.7048,N,01803.2920,E,2.434977,339.78,141204,,*0F
$GPGGA,104439.590,5920.7054,N,01803.2914,E,1,04,8.9,76.5,M,23.2,M,0.0,0000*4B
$GPGSA,A,3,05,24,17,02,,,,,,,,,12.9,8.9,9.2*05
$GPGSV,3,1,12,30,72,254,26,05,70,125,46,24,37,083,42,02,36,113,45*75
$GPGSV,3,2,12,04,32,059,25,01,27,307,32,14,26,256,29,06,24,219,00*75
$GPGSV,3,3,12,17,22,135,42,25,20,311,32,09,19,159,27,20,08,346,31*7A
$GPRMC,104439.590,A,5920.7054,N,01803.2914,E,2.476644,340.57,141204,,*0E
$GPGGA,104440.590,5920.7060,N,01803.2908,E,1,04,8.9,76.3,M,23.2,M,0.0,0000*49
$GPGSA,A,3,05,24,17,02,,,,,,,,,12.9,8.9,9.2*05
$GPGSV,3,1,12,30,72,254,28,05,70,125,46,24,37,083,42,02,36,113,46*78
$GPGSV,3,2,12,04,32,059,25,01,27,307,32,14,26,256,29,06,24,219,00*75
$GPGSV,3,3,12,17,22,135,43,25,20,311,29,09,19,159,27,20,08,346,24*75
$GPRMC,104440.590,A,5920.7060,N,01803.2908,E,1.781627,339.11,141204,,*0B
$GPGGA,104441.590,5920.7063,N,01803.2903,E,1,04,8.9,76.0,M,23.2,M,0.0,0000*43
$GPGSA,A,3,05,24,17,02,,,,,,,,,12.9,8.9,9.2*05
$GPGSV,3,1,12,30,72,254,25,05,70,125,46,24,37,083,42,02,36,113,46*75
$GPGSV,3,2,12,04,32,059,28,01,27,307,29,14,26,256,30,06,24,219,00*7A
$GPGSV,3,3,12,17,22,135,42,25,20,311,29,09,19,159,28,20,08,346,37*79
$GPRMC,104441.590,A,5920.7063,N,01803.2903,E,1.258339,339.11,141204,,*09
$GPGGA,104442.590,5920.7068,N,01803.2899,E,1,05,5.9,75.8,M,23.2,M,0.0,0000*4E
$GPGSA,A,3,05,24,17,09,02,,,,,,,,8.2,5.9,5.7*38
$GPGSV,3,1,12,30,72,254,25,05,70,125,46,24,37,083,41,02,36,113,46*76
$GPGSV,3,2,12,04,32,059,24,01,27,307,30,14,26,256,30,06,24,219,00*7E
$GPGSV,3,3,12,17,22,135,40,25,20,311,30,09,19,159,28,20,08,346,39*7D
$GPRMC,104442.590,A,5920.7068,N,01803.2899,E,1.801152,340.57,141204,,*06
$GPGGA,104443.590,5920.7072,N,01803.2895,E,1,05,5.9,75.8,M,23.2,M,0.0,0000*48
$GPGSA,A,3,05,24,17,09,02,,,,,,,,8.2,5.9,5.7*38
$GPGSV,3,1,12,30,72,254,22,05,70,125,46,24,37,083,41,02,36,113,45*72
$GPGSV,3,2,12,04,32,059,28,01,27,307,30,14,26,256,25,06,24,219,00*76
$GPGSV,3,3,12,17,22,135,39,25,20,311,31,09,19,159,28,20,08,346,41*7D
$GPRMC,104443.590,A,5920.7072,N,01803.2895,E,1.973083,334.55,141204,,*08
$GPGGA,104444.590,5920.7078,N,01803.2888,E,1,04,8.9,75.8,M,23.2,M,0.0,0000*45
$GPGSA,A,3,05,24,17,02,,,,,,,,,12.9,8.9,9.2*05
$GPGSV,3,1,12,30,72,254,26,05,70,125,46,24,37,083,41,02,36,113,45*76
$GPGSV,3,2,12,04,32,059,24,01,27,307,30,14,26,256,24,06,24,219,00*7B
$GPGSV,3,3,12,17,22,135,39,25,20,311,31,09,19,159,26,20,08,346,37*72
$GPRMC,104444.590,A,5920.7078,N,01803.2888,E,2.685312,327.23,141204,,*04
$GPGGA,104445.590,5920.7085,N,01803.2879,E,1,04,9.0,75.7,M,23.2,M,0.0,0000*4F
$GPGSA,A,3,05,24,17,02,,,,,,,,,12.9,9.0,9.2*0D
$GPGSV,3,1,12,30,72,254,26,05,70,125,45,24,37,083,42,02,36,113,45*76
$GPGSV,3,2,12,04,32,059,24,01,27,307,30,14,26,256,24,06,24,219,00*7B
$GPGSV,3,3,12,17,22,135,40,25,20,311,31,09,19,159,27,20,08,346,29*72
$GPRMC,104445.590,A,5920.7085,N,01803.2879,E,2.918799,331.97,141204,,*0D
$GPGGA,104446.590,5920.7092,N,01803.2872,E,1,05,5.9,75.7,M,23.2,M,0.0,0000*45
$GPGSA,A,3,05,24,17,09,02,,,,,,,,8.2,5.9,5.7*38
$GPGSV,3,1,12,30,72,254,26,05,70,125,45,24,37,083,43,02,36,113,45*77
$GPGSV,3,2,12,04,32,059,28,01,27,307,29,14,26,256,24,06,24,219,00*7F
$GPGSV,3,3,12,17,22,135,38,25,20,311,31,09,19,159,30,20,08,346,29*7B
$GPRMC,104446.590,A,5920.7092,N,01803.2872,E,2.858062,334.14,141204,,*0B
$GPGGA,104447.590,5920.7099,N,01803.2867,E,1,05,5.9,76.0,M,23.2,M,0.0,0000*4F
$GPGSA,A,3,05,24,17,09,02,,,,,,,,8.2,5.9,5.7*38
$GPGSV,3,1,12,30,72,254,24,05,70,125,44,24,37,083,42,02,36,113,45*75
$GPGSV,3,2,12,04,32,059,27,01,27,307,29,14,26,256,29,06,24,219,00*7D
$GPGSV,3,3,12,17,22,135,37,25,20,311,31,09,19,159,28,20,08,346,41*73
$GPRMC,104447.590,A,5920.7099,N,01803.2867,E,2.894543,333.77,141204,,*01
$GPGGA,104448.590,5920.7107,N,01803.2863,E,1,05,5.9,76.5,M,23.2,M,0.0,0000*47
$GPGSA,A,3,05,24,17,09,02,,,,,,,,8.2,5.9,5.7*38
$GPGSV,3,1,12,30,72,254,26,05,70,125,44,24,37,083,42,02,36,113,45*77
$GPGSV,3,2,12,04,32,059,26,01,27,307,29,14,26,256,29,06,24,219,00*7C
$GPGSV,3,3,12,17,22,135,40,25,20,311,31,09,19,159,28,20,08,346,43*71
$GPRMC,104448.590,A,5920.7107,N,01803.2863,E,3.050895,330.49,141204,,*05
$GPGGA,104449.590,5920.7114,N,01803.2860,E,1,05,5.9,77.4,M,23.2,M,0.0,0000*47
$GPGSA,A,3,05,24,17,09,02,,,,,,,,8.2,5.9,5.7*38
$GPGSV,3,1,12,30,72,254,26,05,70,125,43,24,37,083,42,02,36,113,46*73
$GPGSV,3,2,12,04,32,059,25,01,27,307,29,14,26,256,29,06,24,219,00*7F
$GPGSV,3,3,12,17,22,135,42,25,20,311,31,09,19,159,30,20,08,346,41*78
$GPRMC,104449.590,A,5920.7114,N,01803.2860,E,3.066903,333.28,141204,,*0A
$GPGGA,104450.590,5920.7122,N,01803.2859,E,1,05,5.8,78.4,M,23.2,M,0.0,0000*4E
$GPGSA,A,3,05,24,17,09,02,,,,,,,,8.2,5.8,5.7*39
$GPGSV,3,1,12,30,72,254,26,05,70,125,45,24,37,083,42,02,36,113,45*76
$GPGSV,3,2,12,04,32,059,25,01,27,307,29,14,26,256,29,06,24,219,00*7F
$GPGSV,3,3,12,17,22,135,41,25,20,311,31,09,19,159,30,20,08,346,33*7E
$GPRMC,104450.590,A,5920.7122,N,01803.2859,E,3.033966,339.48,141204,,*02
$GPGGA,104451.590,5920.7129,N,01803.2856,E,1,04,9.0,79.1,M,23.2,M,0.0,0000*4A
$GPGSA,A,3,05,24,17,02,,,,,,,,,12.9,9.0,9.2*0D
$GPGSV,3,1,12,30,72,254,26,05,70,125,44,24,37,083,42,02,36,113,44*76
$GPGSV,3,2,12,04,32,059,25,01,27,307,29,14,26,256,29,06,24,219,00*7F
$GPGSV,3,3,12,17,22,135,44,25,20,311,31,09,19,159,27,20,08,346,39*77
$GPRMC,104451.590,A,5920.7129,N,01803.2856,E,3.063032,337.05,141204,,*0D
$GPGGA,104452.589,5920.7137,N,01803.2852,E,1,04,9.0,79.7,M,23.2,M,0.0,0000*4C
$GPGSA,A,3,05,24,17,02,,,,,,,,,12.9,9.0,9.2*0D
$GPGSV,3,1,12,30,72,254,26,05,70,125,45,24,37,083,42,02,36,113,44*77
$GPGSV,3,2,12,04,32,059,25,01,27,307,30,14,26,256,30,06,24,219,00*7F
$GPGSV,3,3,12,17,22,135,41,25,20,311,31,09,19,159,25,20,08,346,35*7C
$GPRMC,104452.589,A,5920.7137,N,01803.2852,E,3.006027,337.28,141204,,*05
$GPGGA,104453.589,5920.7145,N,01803.2848,E,1,05,5.8,80.3,M,23.2,M,0.0,0000*44
$GPGSA,A,3,05,24,17,09,02,,,,,,,,8.2,5.8,5.7*39
$GPGSV,3,1,12,30,72,254,26,05,70,125,43,24,37,083,42,02,36,113,46*73
$GPGSV,3,2,12,04,32,059,25,01,27,307,31,14,26,256,33,06,24,219,00*7D
$GPGSV,3,3,12,17,22,135,41,25,20,311,30,09,19,159,31,20,08,346,36*7B
$GPRMC,104453.589,A,5920.7145,N,01803.2848,E,3.174329,339.97,141204,,*09
$GPGGA,104454.589,5920.7152,N,01803.2844,E,1,05,5.8,80.8,M,23.2,M,0.0,0000*42
$GPGSA,A,3,05,24,17,09,02,,,,,,,,8.2,5.8,5.7*39
$GPGSV,3,1,12,30,72,254,24,05,70,125,45,24,37,083,42,02,36,113,46*77
$GPGSV,3,2,12,04,32,059,25,01,27,307,35,14,26,256,32,06,24,219,00*78
$GPGSV,3,3,12,17,22,135,36,25,20,311,27,09,19,159,30,20,08,346,38*72
$GPRMC,104454.589,A,5920.7152,N,01803.2844,E,2.992917,331.00,141204,,*04
$GPGGA,104455.589,5920.7159,N,01803.2837,E,1,04,9.0,81.1,M,23.2,M,0.0,0000*41
$GPGSA,A,3,05,24,17,02,,,,,,,,,12.9,9.0,9.2*0D
$GPGSV,3,1,12,30,72,254,24,05,70,125,45,24,37,083,42,02,36,113,47*76
$GPGSV,3,2,12,04,32,059,25,01,27,307,39,14,26,256,29,06,24,219,00*7E
$GPGSV,3,3,12,17,22,135,38,25,20,311,27,09,19,159,26,20,08,346,39*7A
$GPRMC,104455.589,A,5920.7159,N,01803.2837,E,2.585596,329.28,141204,,*06
$GPGGA,104456.589,5920.7165,N,01803.2829,E,1,04,9.0,81.1,M,23.2,M,0.0,0000*42
$GPGSA,A,3,05,24,17,02,,,,,,,,,12.9,9.0,9.2*0D
$GPGSV,3,1,12,30,72,254,24,05,70,125,45,24,37,083,40,02,36,113,46*75
$GPGSV,3,2,12,04,32,059,25,01,27,307,43,14,26,256,29,06,24,219,00*73
$GPGSV,3,3,12,17,22,135,42,25,20,311,27,09,19,159,27,20,08,346,41*79
$GPRMC,104456.589,A,5920.7165,N,01803.2829,E,2.983147,334.47,141204,,*02
$GPGGA,104457.589,5920.7173,N,01803.2822,E,1,04,9.0,81.1,M,23.2,M,0.0,0000*4F
$GPGSA,A,3,05,24,17,02,,,,,,,,,12.9,9.0,9.2*0D
$GPGSV,3,1,12,30,72,254,24,05,70,125,46,24,37,083,42,02,36,113,46*74
$GPGSV,3,2,12,04,32,059,27,01,27,307,42,14,26,256,30,06,24,219,00*78
$GPGSV,3,3,12,17,22,135,41,25,20,311,30,09,19,159,19,20,08,346,40*70
$GPRMC,104457.589,A,5920.7173,N,01803.2822,E,2.936807,338.52,141204,,*04
$GPGGA,104458.589,5920.7181,N,01803.2815,E,1,04,9.0,81.0,M,23.2,M,0.0,0000*48
$GPGSA,A,3,05,24,17,02,,,,,,,,,12.9,9.0,9.2*0D
$GPGSV,3,1,12,30,72,254,24,05,70,125,46,24,37,083,42,02,36,113,43*71
$GPGSV,3,2,12,04,32,059,28,01,27,307,38,14,26,256,29,06,24,219,00*72
$GPGSV,3,3,12,17,22,135,38,25,20,311,30,09,19,159,25,20,08,346,42*73
$GPRMC,104458.589,A,5920.7181,N,01803.2815,E,2.779498,335.66,141204,,*07
$GPGGA,104459.589,5920.7188,N,01803.2806,E,1,05,5.8,80.8,M,23.2,M,0.0,0000*4E
$GPGSA,A,3,05,24,17,09,02,,,,,,,,8.1,5.8,5.7*3A
$GPGSV,3,1,12,30,72,254,26,05,70,125,45,24,37,083,42,02,36,113,45*76
$GPGSV,3,2,12,04,32,059,28,01,27,307,34,14,26,256,29,06,24,219,00*7E
$GPGSV,3,3,12,17,22,135,33,25,20,311,30,09,19,159,29,20,08,346,42*74
$GPRMC,104459.589,A,5920.7188,N,01803.2806,E,2.781641,333.94,141204,,*07
$GPGGA,104500.589,5920.7196,N,01803.2793,E,1,05,3.3,80.1,M,23.2,M,0.0,0000*4B
$GPGSA,A,3,05,24,17,30,02,,,,,,,,5.6,3.3,4.6*37
$GPGSV,3,1,12,30,72,254,35,05,70,125,44,24,37,083,42,02,36,113,45*75
$GPGSV,3,2,12,04,32,059,29,01,27,307,35,14,26,256,36,06,24,219,00*70
$GPGSV,3,3,12,17,22,135,39,25,20,311,30,09,19,159,23,20,08,346,43*75
$GPRMC,104500.589,A,5920.7196,N,01803.2793,E,2.520663,336.56,141204,,*04
$GPGGA,104501.589,5920.7206,N,01803.2769,E,1,05,3.3,78.2,M,23.2,M,0.0,0000*41
$GPGSA,A,3,05,24,17,30,02,,,,,,,,5.6,3.3,4.6*37
$GPGSV,3,1,12,30,72,254,38,05,70,125,44,24,37,083,42,02,36,113,46*7B
$GPGSV,3,2,12,04,32,059,32,01,27,307,35,14,26,256,36,06,24,219,00*7A
$GPGSV,3,3,12,17,22,135,42,25,20,311,30,09,19,159,27,20,08,346,42*7C
$GPRMC,104501.589,A,5920.7206,N,01803.2769,E,2.138972,333.88,141204,,*0E
$GPGGA,104502.589,5920.7216,N,01803.2738,E,1,05,3.3,75.4,M,23.2,M,0.0,0000*4C
$GPGSA,A,3,05,24,17,30,02,,,,,,,,5.6,3.3,4.6*37
$GPGSV,3,1,12,30,72,254,36,05,70,125,45,24,37,083,42,02,36,113,45*77
$GPGSV,3,2,12,04,32,059,34,01,27,307,33,14,26,256,30,06,24,219,00*7C
$GPGSV,3,3,12,17,22,135,41,25,20,311,30,09,19,159,24,20,08,346,42*7C
$GPRMC,104502.589,A,5920.7216,N,01803.2738,E,1.766260,317.20,141204,,*0A
$GPGGA,104503.589,5920.7225,N,01803.2708,E,1,05,3.3,72.6,M,23.2,M,0.0,0000*4B
$GPGSA,A,3,05,24,17,30,02,,,,,,,,5.6,3.3,4.6*37
$GPGSV,3,1,12,30,72,254,37,05,70,125,46,24,37,083,42,02,36,113,45*75
$GPGSV,3,2,12,04,32,059,35,01,27,307,30,14,26,256,34,06,24,219,00*7A
$GPGSV,3,3,12,17,22,135,38,25,20,311,29,09,19,159,24,20,08,346,44*7C
$GPRMC,104503.589,A,5920.7225,N,01803.2708,E,0.995080,317.20,141204,,*07
$GPGGA,104504.589,5920.7231,N,01803.2680,E,1,05,3.3,69.9,M,23.2,M,0.0,0000*4D
$GPGSA,A,3,05,24,17,30,02,,,,,,,,5.6,3.3,4.6*37
$GPGSV,3,1,12,30,72,254,38,05,70,125,46,24,37,083,42,02,36,113,46*79
$GPGSV,3,2,12,04,32,059,38,01,27,307,30,14,26,256,33,06,24,219,00*70
$GPGSV,3,3,12,17,22,135,40,25,20,311,28,09,19,159,24,20,08,346,43*75
$GPRMC,104504.589,A,5920.7231,N,01803.2680,E,0.538185,317.20,141204,,*0B
$GPGGA,104505.588,5920.7236,N,01803.2658,E,1,05,3.3,67.5,M,23.2,M,0.0,0000*4D
$GPGSA,A,3,05,24,17,30,02,,,,,,,,5.6,3.3,4.6*37
$GPGSV,3,1,12,30,72,254,41,05,70,125,45,24,37,083,42,02,36,113,45*77
$GPGSV,3,2,12,04,32,059,37,01,27,307,30,14,26,256,32,06,24,219,00*7E
$GPGSV,3,3,12,17,22,135,39,25,20,311,28,09,19,159,24,20,08,346,43*7B
$GPRMC,104505.588,A,5920.7236,N,01803.2658,E,0.105784,317.20,141204,,*04
$GPGGA,104506.588,5920.7240,N,01803.2640,E,1,05,3.3,65.4,M,23.2,M,0.0,0000*45
$GPGSA,A,3,05,24,17,30,02,,,,,,,,5.6,3.3,4.6*37
$GPGSV,3,1,12,30,72,254,41,05,70,125,46,24,37,083,42,02,36,113,44*75
$GPGSV,3,2,12,04,32,059,36,01,27,307,30,14,26,256,35,06,24,219,00*78
$GPGSV,3,3,12,17,22,135,39,25,20,311,28,09,19,159,24,20,08,346,42*7A
$GPRMC,104506.588,A,5920.7240,N,01803.2640,E,0.150785,317.20,141204,,*0E
$GPGGA,104507.588,5920.7244,N,01803.2621,E,1,05,3.3,63.5,M,23.2,M,0.0,0000*40
$GPGSA,A,3,05,24,17,30,02,,,,,,,,5.6,3.3,4.6*37
$GPGSV,3,1,12,30,72,254,39,05,70,125,44,24,37,083,42,02,36,113,43*7F
$GPGSV,3,2,12,04,32,059,38,01,27,307,29,14,26,256,33,06,24,219,00*78
$GPGSV,3,3,12,17,22,135,40,25,20,311,28,09,19,159,24,20,08,346,42*74
$GPRMC,104507.588,A,5920.7244,N,01803.2621,E,1.179182,317.20,141204,,*07
$GPGGA,104508.588,5920.7251,N,01803.2600,E,1,05,3.3,61.8,M,23.2,M,0.0,0000*47
$GPGSA,A,3,05,24,17,30,02,,,,,,,,5.6,3.3,4.6*37
$GPGSV,3,1,12,30,72,254,39,05,70,125,45,24,37,083,43,02,36,113,43*7F
$GPGSV,3,2,12,04,32,059,42,01,27,307,28,14,26,256,36,06,24,219,00*71
$GPGSV,3,3,12,17,22,135,41,25,20,311,29,09,19,159,26,20,08,346,38*7B
$GPRMC,104508.588,A,5920.7251,N,01803.2600,E,2.347273,318.34,141204,,*04
$GPGGA,104509.588,5920.7259,N,01803.2578,E,1,05,3.3,60.4,M,23.2,M,0.0,0000*4F
$GPGSA,A,3,05,24,17,30,02,,,,,,,,5.6,3.3,4.6*37
$GPGSV,3,1,12,30,72,254,37,05,70,125,43,24,37,083,43,02,36,113,45*71
$GPGSV,3,2,12,04,32,059,44,01,27,307,31,14,26,256,36,06,24,219,00*7F
$GPGSV,3,3,12,17,22,135,41,25,20,311,29,09,19,159,24,20,08,346,43*75
$GPRMC,104509.588,A,5920.7259,N,01803.2578,E,3.041934,328.05,141204,,*0C
$GPGGA,104510.588,5920.7269,N,01803.2559,E,1,05,3.3,59.1,M,23.2,M,0.0,0000*48
$GPGSA,A,3,05,24,17,30,02,,,,,,,,5.6,3.3,4.6*37
$GPGSV,3,1,12,30,72,254,35,05,70,125,44,24,37,083,43,02,36,113,44*75
$GPGSV,3,2,12,04,32,059,45,01,27,307,26,14,26,256,31,06,24,219,00*7F
$GPGSV,3,3,12,17,22,135,41,25,20,311,29,09,19,159,24,20,08,346,44*72
$GPRMC,104510.588,A,5920.7269,N,01803.2559,E,3.352736,349.62,141204,,*0F
$GPGGA,104511.588,5920.7281,N,01803.2545,E,1,05,3.3,58.0,M,23.2,M,0.0,0000*42
$GPGSA,A,3,05,24,17,30,02,,,,,,,,5.6,3.3,4.6*37
$GPGSV,3,1,12,30,72,254,37,05,70,125,45,24,37,083,42,02,36,113,44*77
$GPGSV,3,2,12,04,32,059,46,01,27,307,27,14,26,256,33,06,24,219,00*7F
$GPGSV,3,3,12,17,22,135,39,25,20,311,29,09,19,159,24,20,08,346,43*7A
$GPRMC,104511.588,A,5920.7281,N,01803.2545,E,3.532892,357.82,141204,,*05
$GPGGA,104512.588,5920.7293,N,01803.2532,E,1,05,3.3,56.9,M,23.2,M,0.0,0000*45
$GPGSA,A,3,05,24,17,30,02,,,,,,,,5.6,3.3,4.6*37
$GPGSV,3,1,12,30,72,254,37,05,70,125,44,24,37,083,41,02,36,113,46*77
$GPGSV,3,2,12,04,32,059,46,01,27,307,29,14,26,256,33,06,24,219,00*71
$GPGSV,3,3,12,17,22,135,40,25,20,311,30,09,19,159,24,20,08,346,43*7C
$GPRMC,104512.588,A,5920.7293,N,01803.2532,E,3.687739,349.73,141204,,*07
$GPGGA,104513.588,5920.7304,N,01803.2518,E,1,06,3.1,56.1,M,23.2,M,0.0,0000*4A
$GPGSA,A,3,05,24,17,09,30,02,,,,,,,5.2,3.1,4.2*3C
$GPGSV,3,1,12,30,72,254,37,05,70,125,44,24,37,083,42,02,36,113,45*77
$GPGSV,3,2,12,04,32,059,45,01,27,307,33,14,26,256,29,06,24,219,00*72
$GPGSV,3,3,12,17,22,135,40,25,20,311,30,09,19,159,30,20,08,346,41*7B
$GPRMC,104513.588,A,5920.7304,N,01803.2518,E,3.566776,340.10,141204,,*0A
$GPGGA,104514.588,5920.7315,N,01803.2501,E,1,05,3.3,55.3,M,23.2,M,0.0,0000*45
$GPGSA,A,3,05,24,17,30,02,,,,,,,,5.6,3.3,4.6*37
$GPGSV,3,1,12,30,72,254,35,05,70,125,42,24,37,083,43,02,36,113,45*72
$GPGSV,3,2,12,04,32,059,45,01,27,307,30,14,26,256,27,06,24,219,00*7F
$GPGSV,3,3,12,17,22,135,42,25,20,311,29,09,19,159,25,20,08,346,38*7B
$GPRMC,104514.588,A,5920.7315,N,01803.2501,E,3.531781,336.51,141204,,*0B
$GPGGA,104515.588,5920.7326,N,01803.2484,E,1,06,3.1,54.4,M,23.2,M,0.0,0000*4F
$GPGSA,A,3,05,24,17,09,30,02,,,,,,,5.2,3.1,4.2*3C
$GPGSV,3,1,12,30,72,254,37,05,70,125,43,24,37,083,44,02,36,113,45*76
$GPGSV,3,2,12,04,32,059,45,01,27,307,31,14,26,256,25,06,24,219,00*7C
$GPGSV,3,3,12,17,22,135,38,25,20,311,30,09,19,159,31,20,08,346,38*7B
$GPRMC,104515.588,A,5920.7326,N,01803.2484,E,3.425868,337.56,141204,,*0C
$GPGGA,104516.588,5920.7336,N,01803.2469,E,1,05,3.3,53.8,M,23.2,M,0.0,0000*44
$GPGSA,A,3,05,24,17,30,02,,,,,,,,5.6,3.3,4.6*37
$GPGSV,3,1,12,30,72,254,37,05,70,125,44,24,37,083,42,02,36,113,45*77
$GPGSV,3,2,12,04,32,059,44,01,27,307,30,14,26,256,25,06,24,219,00*7C
$GPGSV,3,3,12,17,22,135,41,25,20,311,30,09,19,159,26,20,08,346,40*7C
$GPRMC,104516.588,A,5920.7336,N,01803.2469,E,3.551740,337.53,141204,,*0F
$GPGGA,104517.588,5920.7347,N,01803.2454,E,1,06,3.1,53.2,M,23.2,M,0.0,0000*46
$GPGSA,A,3,05,24,17,09,30,02,,,,,,,5.2,3.1,4.2*3C
$GPGSV,3,1,12,30,72,254,37,05,70,125,44,24,37,083,42,02,36,113,42*70
$GPGSV,3,2,12,04,32,059,44,01,27,307,31,14,26,256,27,06,24,219,00*7F
$GPGSV,3,3,12,17,22,135,41,25,20,311,33,09,19,159,29,20,08,346,41*71
$GPRMC,104517.588,A,5920.7347,N,01803.2454,E,3.555826,332.67,141204,,*0F
$GPGGA,104518.588,5920.7357,N,01803.2440,E,1,05,3.3,52.7,M,23.2,M,0.0,0000*48
$GPGSA,A,3,05,24,17,30,02,,,,,,,,5.6,3.3,4.6*37
$GPGSV,3,1,12,30,72,253,37,05,70,125,44,24,37,083,42,02,36,113,42*77
$GPGSV,3,2,12,04,32,058,43,01,27,307,32,14,25,255,32,06,25,219,00*7F
$GPGSV,3,3,12,17,22,135,40,25,20,311,30,09,19,159,27,20,08,346,41*7D
$GPRMC,104518.588,A,5920.7357,N,01803.2440,E,3.429744,332.65,141204,,*07
$GPGGA,104519.587,5920.7367,N,01803.2425,E,1,05,3.3,52.1,M,23.2,M,0.0,0000*40
$GPGSA,A,3,05,24,17,30,02,,,,,,,,5.6,3.3,4.6*37
$GPGSV,3,1,12,30,72,253,37,05,70,125,42,24,37,083,43,02,36,113,45*77
$GPGSV,3,2,12,04,32,058,44,01,27,307,29,14,25,255,34,06,25,219,00*74
$GPGSV,3,3,12,17,22,135,40,25,20,311,33,09,19,159,24,20,08,346,41*7D
$GPRMC,104519.587,A,5920.7367,N,01803.2425,E,3.568192,332.95,141204,,*0F
$GPGGA,104520.587,5920.7377,N,01803.2410,E,1,05,3.3,51.4,M,23.2,M,0.0,0000*4B
$GPGSA,A,3,05,24,17,30,02,,,,,,,,5.6,3.3,4.6*37
$GPGSV,3,1,12,30,72,253,36,05,70,125,43,24,37,083,42,02,36,113,45*76
$GPGSV,3,2,12,04,32,058,44,01,27,307,29,14,25,255,35,06,25,219,00*75
$GPGSV,3,3,12,17,22,135,37,25,20,311,32,09,19,159,25,20,08,346,41*7D
$GPRMC,104520.587,A,5920.7377,N,01803.2410,E,3.431482,334.73,141204,,*05
$GPGGA,104521.587,5920.7386,N,01803.2398,E,1,05,3.3,50.9,M,23.2,M,0.0,0000*4F
$GPGSA,A,3,05,24,17,30,02,,,,,,,,5.6,3.3,4.6*37
$GPGSV,3,1,12,30,72,253,38,05,70,125,43,24,37,083,42,02,36,113,45*78
$GPGSV,3,2,12,04,32,058,44,01,27,307,29,14,25,255,33,06,25,219,00*73
$GPGSV,3,3,12,17,22,135,39,25,20,311,31,09,19,159,28,20,08,346,42*7E
$GPRMC,104521.587,A,5920.7386,N,01803.2398,E,3.448326,337.50,141204,,*08
$GPGGA,104522.587,5920.7396,N,01803.2385,E,1,05,3.3,50.4,M,23.2,M,0.0,0000*4C
$GPGSA,A,3,05,24,17,30,02,,,,,,,,5.6,3.3,4.6*37
$GPGSV,3,1,12,30,72,253,38,05,70,125,42,24,37,083,43,02,36,113,45*78
$GPGSV,3,2,12,04,32,058,44,01,27,307,32,14,25,255,29,06,25,219,00*72
$GPGSV,3,3,12,17,22,135,39,25,20,311,31,09,19,159,27,20,08,346,41*72
$GPRMC,104522.587,A,5920.7396,N,01803.2385,E,3.431066,335.99,141204,,*08
$GPGGA,104523.587,5920.7406,N,01803.2373,E,1,06,3.1,50.0,M,23.2,M,0.0,0000*4F
$GPGSA,A,3,05,24,17,09,30,02,,,,,,,5.2,3.1,4.2*3C
$GPGSV,3,1,12,30,72,253,34,05,70,125,42,24,37,083,44,02,36,113,44*72
$GPGSV,3,2,12,04,32,058,45,01,27,307,31,14,25,255,22,06,25,219,00*7B
$GPGSV,3,3,12,17,22,135,40,25,20,311,30,09,19,159,31,20,08,346,41*7A
$GPRMC,104523.587,A,5920.7406,N,01803.2373,E,3.663433,334.78,141204,,*01
$GPGGA,104524.587,5920.7416,N,01803.2360,E,1,07,1.3,49.1,M,23.2,M,0.0,0000*43
$GPGSA,A,3,05,24,17,09,30,02,20,,,,,,1.9,1.3,1.4*32
$GPGSV,3,1,12,30,72,253,28,05,70,125,43,24,37,083,42,02,36,112,45*78
$GPGSV,3,2,12,04,32,058,40,01,27,307,31,14,25,255,22,06,25,219,00*7E
$GPGSV,3,3,12,17,22,135,40,25,20,311,31,09,19,159,29,20,08,346,40*73
$GPRMC,104524.587,A,5920.7416,N,01803.2360,E,3.566919,337.65,141204,,*09
$GPGGA,104525.587,5920.7426,N,01803.2351,E,1,06,1.7,48.6,M,23.2,M,0.0,0000*40
$GPGSA,A,3,05,24,17,09,02,20,,,,,,,2.5,1.7,1.8*36
$GPGSV,3,1,12,30,72,253,28,05,70,125,42,24,37,083,43,02,36,112,46*7B
$GPGSV,3,2,12,04,32,058,30,01,27,307,31,14,25,255,25,06,25,219,00*7E
$GPGSV,3,3,12,17,22,135,41,25,20,311,33,09,19,159,29,20,08,346,43*73
$GPRMC,104525.587,A,5920.7426,N,01803.2351,E,3.561051,338.77,141204,,*07
$GPGGA,104526.587,5920.7436,N,01803.2341,E,1,06,1.7,48.0,M,23.2,M,0.0,0000*45
$GPGSA,A,3,05,24,17,09,02,20,,,,,,,2.5,1.7,1.8*36
$GPGSV,3,1,12,30,72,253,28,05,70,125,42,24,37,083,44,02,36,112,46*7C
$GPGSV,3,2,12,04,32,058,32,01,27,307,31,14,25,255,27,06,25,219,00*7E
$GPGSV,3,3,12,17,22,135,39,25,20,311,29,09,19,159,29,20,08,346,42*76
$GPRMC,104526.587,A,5920.7436,N,01803.2341,E,3.571422,335.31,141204,,*0A
$GPGGA,104527.587,5920.7446,N,01803.2331,E,1,05,2.3,47.4,M,23.2,M,0.0,0000*4B
$GPGSA,A,3,05,24,17,02,20,,,,,,,,3.0,2.3,1.9*3D
$GPGSV,3,1,12,30,72,253,28,05,70,125,43,24,37,083,43,02,36,112,46*7A
$GPGSV,3,2,12,04,32,058,29,01,27,307,31,14,25,255,25,06,25,219,00*76
$GPGSV,3,3,12,17,22,135,37,25,20,311,28,09,19,159,25,20,08,346,41*76
$GPRMC,104527.587,A,5920.7446,N,01803.2331,E,3.639882,332.72,141204,,*02
$GPGGA,104528.587,5920.7455,N,01803.2320,E,1,05,2.3,46.8,M,23.2,M,0.0,0000*4B
$GPGSA,A,3,05,24,17,02,20,,,,,,,,3.0,2.3,1.9*3D
$GPGSV,3,1,12,30,72,253,27,05,70,125,43,24,37,083,43,02,36,112,45*76
$GPGSV,3,2,12,04,32,058,27,01,27,307,31,14,25,255,24,06,25,219,00*79
$GPGSV,3,3,12,17,22,135,38,25,20,311,26,09,19,159,25,20,08,346,39*78
$GPRMC,104528.587,A,5920.7455,N,01803.2320,E,3.582879,332.67,141204,,*0C
$GPGGA,104529.587,5920.7464,N,01803.2309,E,1,05,2.3,46.1,M,23.2,M,0.0,0000*4A
$GPGSA,A,3,05,24,17,02,20,,,,,,,,3.0,2.3,1.9*3D
$GPGSV,3,1,12,30,72,253,26,05,70,125,43,24,37,083,44,02,36,112,45*70
$GPGSV,3,2,12,04,32,058,28,01,27,307,31,14,25,255,28,06,25,219,00*7A
$GPGSV,3,3,12,17,22,135,38,25,20,311,25,09,19,159,22,20,08,346,39*7C
$GPRMC,104529.587,A,5920.7464,N,01803.2309,E,3.460223,335.71,141204,,*0C
$GPGGA,104530.587,5920.7474,N,01803.2300,E,1,05,2.3,45.4,M,23.2,M,0.0,0000*4C
$GPGSA,A,3,05,24,17,02,20,,,,,,,,3.0,2.3,1.9*3D
$GPGSV,3,1,12,30,72,253,25,05,70,125,43,24,37,083,43,02,36,112,45*74
$GPGSV,3,2,12,04,32,058,24,01,27,307,31,14,25,255,26,06,25,219,00*78
$GPGSV,3,3,12,17,22,135,39,25,20,311,27,09,19,159,27,20,08,346,39*7A
$GPRMC,104530.587,A,5920.7474,N,01803.2300,E,3.486833,335.95,141204,,*05
$GPGGA,104531.587,5920.7483,N,01803.2291,E,1,06,1.7,45.0,M,23.2,M,0.0,0000*4C
$GPGSA,A,3,05,24,17,09,02,20,,,,,,,2.5,1.7,1.8*36
$GPGSV,3,1,12,30,72,253,25,05,70,125,43,24,37,083,43,02,36,112,46*77
$GPGSV,3,2,12,04,32,058,24,01,27,307,28,14,25,255,29,06,25,219,00*7F
$GPGSV,3,3,12,17,22,135,37,25,20,311,23,09,19,159,29,20,08,346,38*7F
$GPRMC,104531.587,A,5920.7483,N,01803.2291,E,3.335638,333.85,141204,,*08
$GPGGA,104532.587,5920.7492,N,01803.2282,E,1,05,2.3,44.3,M,23.2,M,0.0,0000*4B
$GPGSA,A,3,05,24,17,02,20,,,,,,,,3.0,2.3,1.9*3D
$GPGSV,3,1,12,30,72,253,25,05,70,125,44,24,37,083,44,02,36,112,46*77
$GPGSV,3,2,12,04,32,058,29,01,27,307,30,14,25,255,31,06,25,219,00*72
$GPGSV,3,3,12,17,22,135,38,25,20,311,23,09,19,159,25,20,08,346,38*7C
$GPRMC,104532.587,A,5920.7492,N,01803.2282,E,3.465013,331.96,141204,,*04
$GPGGA,104533.586,5920.7500,N,01803.2273,E,1,05,2.3,43.5,M,23.2,M,0.0,0000*4E
$GPGSA,A,3,05,24,17,02,20,,,,,,,,3.0,2.3,1.9*3D
$GPGSV,3,1,12,30,72,253,23,05,70,125,41,24,37,083,44,02,36,112,45*77
$GPGSV,3,2,12,04,32,058,29,01,27,307,30,14,25,255,28,06,25,219,00*7A
$GPGSV,3,3,12,17,22,135,43,25,20,311,28,09,19,159,25,20,08,346,41*75
$GPRMC,104533.586,A,5920.7500,N,01803.2273,E,3.357969,327.28,141204,,*00
$GPGGA,104534.586,5920.7508,N,01803.2263,E,1,05,2.3,42.8,M,23.2,M,0.0,0000*4C
$GPGSA,A,3,05,24,17,02,20,,,,,,,,3.0,2.3,1.9*3D
$GPGSV,3,1,12,30,72,253,25,05,70,125,42,24,37,083,44,02,36,112,45*72
$GPGSV,3,2,12,04,32,058,29,01,27,307,29,14,25,255,33,06,25,219,00*78
$GPGSV,3,3,12,17,22,135,41,25,20,311,31,09,19,159,26,20,08,346,41*7C
$GPRMC,104534.586,A,5920.7508,N,01803.2263,E,3.407072,330.14,141204,,*06
$GPGGA,104535.586,5920.7516,N,01803.2254,E,1,06,1.7,42.2,M,23.2,M,0.0,0000*48
$GPGSA,A,3,05,24,17,09,02,20,,,,,,,2.5,1.7,1.8*36
$GPGSV,3,1,12,30,72,253,25,05,70,125,43,24,37,083,43,02,36,112,46*77
$GPGSV,3,2,12,04,32,058,31,01,27,307,30,14,25,255,29,06,25,219,00*72
$GPGSV,3,3,12,17,22,135,42,25,20,311,31,09,19,159,32,20,08,346,38*74
$GPRMC,104535.586,A,5920.7516,N,01803.2254,E,3.287362,333.05,141204,,*03
$GPGGA,104536.586,5920.7524,N,01803.2245,E,1,06,1.7,41.7,M,23.2,M,0.0,0000*4C
$GPGSA,A,3,05,24,17,09,02,20,,,,,,,2.5,1.7,1.8*36
$GPGSV,3,1,12,30,72,253,25,05,70,125,44,24,37,083,42,02,36,112,45*72
$GPGSV,3,2,12,04,32,058,31,01,27,307,31,14,25,255,26,06,25,219,00*7C
$GPGSV,3,3,12,17,22,135,39,25,20,311,31,09,19,159,33,20,08,346,38*79
$GPRMC,104536.586,A,5920.7524,N,01803.2245,E,3.208078,330.17,141204,,*0E
$GPGGA,104537.586,5920.7532,N,01803.2236,E,1,06,1.7,41.3,M,23.2,M,0.0,0000*4A
$GPGSA,A,3,05,24,17,09,02,20,,,,,,,2.5,1.7,1.8*36
$GPGSV,3,1,12,30,72,253,25,05,70,125,45,24,37,083,43,02,36,112,44*73
$GPGSV,3,2,12,04,32,058,30,01,27,307,29,14,25,255,25,06,25,219,00*77
$GPGSV,3,3,12,17,22,135,44,25,20,311,31,09,19,159,36,20,08,346,42*7B
$GPRMC,104537.586,A,5920.7532,N,01803.2236,E,3.358200,326.76,141204,,*05
$GPGGA,104538.586,5920.7540,N,01803.2226,E,1,06,1.7,41.0,M,23.2,M,0.0,0000*42
$GPGSA,A,3,05,24,17,09,02,20,,,,,,,2.5,1.7,1.8*36
$GPGSV,3,1,12,30,72,253,25,05,70,125,45,24,37,083,43,02,36,112,43*74
$GPGSV,3,2,12,04,32,058,25,01,27,307,30,14,25,255,27,06,25,219,00*79
$GPGSV,3,3,12,17,22,135,40,25,20,311,31,09,19,159,33,20,08,346,40*78
$GPRMC,104538.586,A,5920.7540,N,01803.2226,E,3.378583,332.49,141204,,*09
$GPGGA,104539.586,5920.7548,N,01803.2218,E,1,06,1.7,40.7,M,23.2,M,0.0,0000*40
$GPGSA,A,3,05,24,17,09,02,20,,,,,,,2.5,1.7,1.8*36
$GPGSV,3,1,12,30,72,253,25,05,70,125,45,24,37,083,44,02,36,112,46*76
$GPGSV,3,2,12,04,32,058,31,01,27,307,30,14,25,255,28,06,25,219,00*73
$GPGSV,3,3,12,17,22,135,40,25,20,311,29,09,19,159,35,20,08,346,39*79
$GPRMC,104539.586,A,5920.7548,N,01803.2218,E,3.390726,330.02,141204,,*0B
$GPGGA,104540.586,5920.7556,N,01803.2209,E,1,06,1.7,40.5,M,23.2,M,0.0,0000*43
$GPGSA,A,3,05,24,17,09,02,20,,,,,,,2.5,1.7,1.8*36
$GPGSV,3,1,12,30,72,253,25,05,70,125,43,24,37,083,45,02,36,112,46*71
$GPGSV,3,2,12,04,32,058,31,01,27,307,30,14,25,255,27,06,25,219,00*7C
$GPGSV,3,3,12,17,22,135,43,25,20,311,30,09,19,159,34,20,08,346,38*72
$GPRMC,104540.586,A,5920.7556,N,01803.2209,E,3.363453,331.07,141204,,*03
$GPGGA,104541.586,5920.7564,N,01803.2200,E,1,06,1.7,40.3,M,23.2,M,0.0,0000*4C
$GPGSA,A,3,05,24,17,09,02,20,,,,,,,2.5,1.7,1.8*36
$GPGSV,3,1,12,30,72,253,19,05,70,125,42,24,37,083,44,02,36,112,45*7D
$GPGSV,3,2,12,04,32,058,29,01,27,307,31,14,25,255,27,06,25,219,00*74
$GPGSV,3,3,12,17,22,135,41,25,20,311,30,09,19,159,34,20,08,346,40*7F
$GPRMC,104541.586,A,5920.7564,N,01803.2200,E,3.459575,329.50,141204,,*0A
$GPGGA,104542.586,5920.7572,N,01803.2191,E,1,05,5.7,40.2,M,23.2,M,0.0,0000*45
$GPGSA,A,3,05,24,17,09,02,,,,,,,,8.0,5.7,5.5*36
$GPGSV,3,1,12,30,72,253,19,05,70,124,42,24,37,083,44,02,36,112,45*7C
$GPGSV,3,2,12,04,32,058,29,01,27,306,28,14,25,255,24,06,25,219,00*7E
$GPGSV,3,3,12,17,22,135,38,25,20,311,31,09,19,159,34,20,08,346,28*7E
$GPRMC,104542.586,A,5920.7572,N,01803.2191,E,3.401464,330.98,141204,,*05
$GPGGA,104543.586,5920.7580,N,01803.2183,E,1,06,1.7,40.2,M,23.2,M,0.0,0000*4D
$GPGSA,A,3,05,24,17,09,02,20,,,,,,,2.5,1.7,1.8*36
$GPGSV,3,1,12,30,72,253,19,05,70,124,43,24,37,083,44,02,36,112,44*7C
$GPGSV,3,2,12,04,32,058,26,01,27,306,32,14,25,255,27,06,25,219,00*79
$GPGSV,3,3,12,17,22,135,41,25,20,311,29,09,19,159,31,20,08,346,37*72
$GPRMC,104543.586,A,5920.7580,N,01803.2183,E,3.269408,330.09,141204,,*00
$GPGGA,104544.586,5920.7587,N,01803.2175,E,1,06,1.7,40.4,M,23.2,M,0.0,0000*42
$GPGSA,A,3,05,24,17,09,02,20,,,,,,,2.5,1.7,1.8*36
$GPGSV,3,1,12,30,72,253,19,05,70,124,42,24,37,083,38,02,36,112,42*70
$GPGSV,3,2,12,04,32,058,26,01,27,306,30,14,25,255,28,06,25,219,00*74
$GPGSV,3,3,12,17,22,135,42,25,20,311,29,09,19,159,31,20,08,346,37*71
$GPRMC,104544.586,A,5920.7587,N,01803.2175,E,3.483868,334.61,141204,,*0B
$GPGGA,104545.586,5920.7595,N,01803.2168,E,1,05,2.3,40.7,M,23.2,M,0.0,0000*4B
$GPGSA,A,3,05,24,17,02,20,,,,,,,,3.0,2.3,1.9*3D
$GPGSV,3,1,12,30,72,253,23,05,70,124,43,24,37,083,38,02,36,112,37*7A
$GPGSV,3,2,12,04,32,058,26,01,27,306,31,14,25,255,27,06,25,219,00*7A
$GPGSV,3,3,12,17,22,135,33,25,20,311,29,09,19,159,27,20,08,346,39*7E
$GPRMC,104545.586,A,5920.7595,N,01803.2168,E,3.122845,344.70,141204,,*03
$GPGGA,104546.586,5920.7603,N,01803.2162,E,1,05,2.3,40.7,M,23.2,M,0.0,0000*4E
$GPGSA,A,3,05,24,17,02,20,,,,,,,,3.0,2.3,1.9*3D
$GPGSV,3,1,12,30,72,253,00,05,70,124,42,24,37,083,39,02,36,112,35*79
$GPGSV,3,2,12,04,32,058,27,01,27,306,31,14,25,255,25,06,25,219,00*79
$GPGSV,3,3,12,17,22,135,36,25,20,311,29,09,19,159,27,20,08,346,44*71
$GPRMC,104546.586,A,5920.7603,N,01803.2162,E,3.106214,339.89,141204,,*02
$GPGGA,104547.585,5920.7611,N,01803.2155,E,1,06,1.7,40.5,M,23.2,M,0.0,0000*4D
$GPGSA,A,3,05,24,17,09,02,20,,,,,,,2.5,1.7,1.8*36
$GPGSV,3,1,12,30,72,253,00,05,70,124,43,24,37,083,44,02,36,112,41*71
$GPGSV,3,2,12,04,32,058,29,01,27,306,31,14,25,255,24,06,25,219,00*76
$GPGSV,3,3,12,17,22,135,34,25,20,311,29,09,19,159,30,20,08,346,43*72
$GPRMC,104547.585,A,5920.7611,N,01803.2155,E,3.314744,333.50,141204,,*08
$GPGGA,104548.585,5920.7619,N,01803.2146,E,1,05,2.3,40.5,M,23.2,M,0.0,0000*4C
$GPGSA,A,3,05,24,17,02,20,,,,,,,,3.0,2.3,1.9*3D
$GPGSV,3,1,12,30,72,253,00,05,70,124,42,24,37,082,44,02,36,112,46*76
$GPGSV,3,2,12,04,32,058,30,01,28,306,29,14,25,255,30,06,25,219,00*7D
$GPGSV,3,3,12,17,22,135,38,25,20,311,29,09,19,159,30,20,08,346,43*7E
$GPRMC,104548.585,A,5920.7619,N,01803.2146,E,3.493535,335.59,141204,,*0E
$GPGGA,104549.585,5920.7627,N,01803.2136,E,1,05,2.3,40.4,M,23.2,M,0.0,0000*46
$GPGSA,A,3,05,24,17,02,20,,,,,,,,3.0,2.3,1.9*3D
$GPGSV,3,1,12,30,72,253,00,05,70,124,43,24,37,082,44,02,36,112,46*77
$GPGSV,3,2,12,04,32,058,30,01,28,306,29,14,25,255,25,06,25,219,00*79
$GPGSV,3,3,12,17,22,135,40,25,20,311,29,09,19,159,30,20,08,346,42*70
$GPRMC,104549.585,A,5920.7627,N,01803.2136,E,3.491091,334.82,141204,,*0B
$GPGGA,104550.585,5920.7635,N,01803.2127,E,1,05,2.3,40.4,M,23.2,M,0.0,0000*4D
$GPGSA,A,3,05,24,17,02,20,,,,,,,,3.0,2.3,1.9*3D
$GPGSV,3,1,12,30,72,253,00,05,70,124,43,24,37,082,44,02,36,112,46*77
$GPGSV,3,2,12,04,32,058,32,01,28,306,29,14,25,255,25,06,25,219,00*7B
$GPGSV,3,3,12,17,22,135,40,25,20,311,29,09,19,159,24,20,08,346,42*75
$GPRMC,104550.585,A,5920.7635,N,01803.2127,E,3.402906,334.66,141204,,*07
$GPGGA,104551.585,5920.7643,N,01803.2119,E,1,05,2.3,40.2,M,23.2,M,0.0,0000*46
$GPGSA,A,3,05,24,17,02,20,,,,,,,,3.0,2.3,1.9*3D
$GPGSV,3,1,12,30,72,253,00,05,70,124,43,24,37,082,43,02,36,112,45*73
$GPGSV,3,2,12,04,32,058,28,01,28,306,30,14,25,255,25,06,25,219,00*78
$GPGSV,3,3,12,17,22,135,40,25,20,311,29,09,19,159,27,20,08,346,42*76
$GPRMC,104551.585,A,5920.7643,N,01803.2119,E,3.422047,337.94,141204,,*0A
$GPGGA,104552.585,5920.7652,N,01803.2113,E,1,06,1.7,40.3,M,23.2,M,0.0,0000*4A
$GPGSA,A,3,05,24,17,09,02,20,,,,,,,2.5,1.7,1.8*36
$GPGSV,3,1,12,30,72,253,00,05,70,124,44,24,37,082,43,02,36,112,44*75
$GPGSV,3,2,12,04,32,058,29,01,28,306,28,14,25,255,25,06,25,219,00*70
$GPGSV,3,3,12,17,22,135,41,25,20,311,29,09,19,159,29,20,08,346,43*78
$GPRMC,104552.585,A,5920.7652,N,01803.2113,E,3.282163,345.05,141204,,*05
$GPGGA,104553.585,5920.7661,N,01803.2108,E,1,06,1.7,40.4,M,23.2,M,0.0,0000*46
$GPGSA,A,3,05,24,17,09,02,20,,,,,,,2.5,1.7,1.8*36
$GPGSV,3,1,12,30,72,253,00,05,70,124,44,24,37,082,41,02,36,112,43*70
$GPGSV,3,2,12,04,32,058,29,01,28,306,28,14,25,255,27,06,25,219,00*72
$GPGSV,3,3,12,17,22,135,42,25,20,311,00,09,19,159,29,20,08,346,42*71
$GPRMC,104553.585,A,5920.7661,N,01803.2108,E,3.486218,345.53,141204,,*00
$GPGGA,104554.585,5920.7670,N,01803.2104,E,1,06,1.7,40.6,M,23.2,M,0.0,0000*4F
$GPGSA,A,3,05,24,17,09,02,20,,,,,,,2.5,1.7,1.8*36
$GPGSV,3,1,12,30,72,253,00,05,70,124,45,24,37,082,42,02,36,112,45*74
$GPGSV,3,2,12,04,32,058,29,01,28,306,28,14,25,255,26,06,25,219,00*73
$GPGSV,3,3,12,17,22,135,41,25,20,311,00,09,19,159,30,20,08,346,39*76
$GPRMC,104554.585,A,5920.7670,N,01803.2104,E,3.502541,344.00,141204,,*0A
$GPGGA,104555.585,5920.7680,N,01803.2099,E,1,06,1.7,40.9,M,23.2,M,0.0,0000*4B
$GPGSA,A,3,05,24,17,09,02,20,,,,,,,2.5,1.7,1.8*36
$GPGSV,3,1,12,30,72,253,00,05,70,124,44,24,37,082,43,02,36,112,47*76
$GPGSV,3,2,12,04,32,058,29,01,28,306,28,14,25,255,26,06,25,219,00*73
$GPGSV,3,3,12,17,22,135,39,25,20,311,00,09,19,159,30,20,08,346,42*75
$GPRMC,104555.585,A,5920.7680,N,01803.2099,E,3.456381,341.59,141204,,*02
$GPGGA,104556.585,5920.7689,N,01803.2093,E,1,06,1.7,41.3,M,23.2,M,0.0,0000*40
$GPGSA,A,3,05,24,17,09,02,20,,,,,,,2.5,1.7,1.8*36
$GPGSV,3,1,12,30,72,253,00,05,70,124,42,24,37,082,42,02,36,112,45*73
$GPGSV,3,2,12,04,32,058,27,01,28,306,28,14,25,255,28,06,25,219,00*73
$GPGSV,3,3,12,17,22,135,40,25,20,311,00,09,19,159,31,20,08,346,44*7C
$GPRMC,104556.585,A,5920.7689,N,01803.2093,E,3.488534,335.78,141204,,*09
$GPGGA,104557.585,5920.7699,N,01803.2087,E,1,06,1.7,42.1,M,23.2,M,0.0,0000*44
$GPGSA,A,3,05,24,17,09,02,20,,,,,,,2.5,1.7,1.8*36
$GPGSV,3,1,12,30,72,253,00,05,70,124,43,24,37,082,42,02,36,112,46*71
$GPGSV,3,2,12,04,32,058,30,01,28,306,28,14,25,255,29,06,25,219,00*74
$GPGSV,3,3,12,17,22,135,40,25,20,311,00,09,19,159,31,20,08,346,44*7C
$GPRMC,104557.585,A,5920.7699,N,01803.2087,E,3.425006,333.48,141204,,*0A
$GPGGA,104558.585,5920.7709,N,01803.2079,E,1,06,1.7,42.7,M,23.2,M,0.0,0000*44
$GPGSA,A,3,05,24,17,09,02,20,,,,,,,2.5,1.7,1.8*36
$GPGSV,3,1,12,30,72,253,00,05,70,124,44,24,37,082,43,02,36,112,46*77
$GPGSV,3,2,12,04,32,058,26,01,28,306,28,14,25,255,27,06,25,219,00*7D
$GPGSV,3,3,12,17,22,135,40,25,20,311,00,09,19,159,29,20,08,346,42*73
$GPRMC,104558.585,A,5920.7709,N,01803.2079,E,3.471954,324.35,141204,,*0F
$GPGGA,104559.585,5920.7719,N,01803.2072,E,1,06,1.7,43.7,M,23.2,M,0.0,0000*4E
$GPGSA,A,3,05,24,17,09,02,20,,,,,,,2.5,1.7,1.8*36
$GPGSV,3,1,12,30,72,253,00,05,70,124,44,24,37,082,43,02,36,112,46*77
$GPGSV,3,2,12,04,32,058,23,01,28,306,28,14,25,255,27,06,25,219,00*78
$GPGSV,3,3,12,17,22,135,41,25,20,311,00,09,19,159,29,20,08,346,38*7F
$GPRMC,104559.585,A,5920.7719,N,01803.2072,E,3.382092,332.31,141204,,*0F
$GPGGA,104600.585,5920.7729,N,01803.2065,E,1,06,1.7,44.6,M,23.2,M,0.0,0000*42
$GPGSA,A,3,05,24,17,09,02,20,,,,,,,2.5,1.7,1.8*36
$GPGSV,3,1,12,30,72,253,00,05,70,124,44,24,37,082,43,02,36,112,47*76
$GPGSV,3,2,12,04,32,058,27,01,28,306,30,14,25,255,27,06,25,219,00*75
$GPGSV,3,3,12,17,22,135,37,25,20,311,00,09,19,159,28,20,08,346,43*73
$GPRMC,104600.585,A,5920.7729,N,01803.2065,E,3.472417,331.69,141204,,*0A
$GPGGA,104601.584,5920.7738,N,01803.2058,E,1,05,2.3,44.8,M,23.2,M,0.0,0000*46
$GPGSA,A,3,05,24,17,02,20,,,,,,,,3.0,2.3,1.9*3D
$GPGSV,3,1,12,30,72,253,26,05,70,124,43,24,37,082,43,02,36,112,47*75
$GPGSV,3,2,12,04,32,058,24,01,28,306,30,14,25,255,25,06,25,219,00*74
$GPGSV,3,3,12,17,22,135,38,25,20,311,00,09,19,159,25,20,08,346,41*73
$GPRMC,104601.584,A,5920.7738,N,01803.2058,E,3.441082,334.13,141204,,*04
$GPGGA,104602.584,5920.7747,N,01803.2050,E,1,06,1.7,44.9,M,23.2,M,0.0,0000*40
$GPGSA,A,3,05,24,17,09,02,20,,,,,,,2.5,1.7,1.8*36
$GPGSV,3,1,12,30,72,253,25,05,70,124,43,24,37,082,43,02,36,112,46*77
$GPGSV,3,2,12,04,32,058,24,01,28,306,30,14,25,255,23,06,25,219,00*72
$GPGSV,3,3,12,17,22,135,40,25,20,311,00,09,19,159,28,20,08,346,40*70
$GPRMC,104602.584,A,5920.7747,N,01803.2050,E,3.469100,333.77,141204,,*03
$GPGGA,104603.584,5920.7755,N,01803.2042,E,1,05,2.3,44.9,M,23.2,M,0.0,0000*45
$GPGSA,A,3,05,24,17,02,20,,,,,,,,3.0,2.3,1.9*3D
$GPGSV,3,1,12,30,72,253,23,05,70,124,43,24,37,082,42,02,36,112,46*70
$GPGSV,3,2,12,04,32,058,24,01,28,306,30,14,25,255,25,06,25,219,00*74
$GPGSV,3,3,12,17,22,135,39,25,20,311,00,09,19,159,26,20,08,346,42*72
$GPRMC,104603.584,A,5920.7755,N,01803.2042,E,3.445396,334.01,141204,,*07
$GPGGA,104604.584,5920.7764,N,01803.2035,E,1,05,2.3,44.8,M,23.2,M,0.0,0000*41
$GPGSA,A,3,05,24,17,02,20,,,,,,,,3.0,2.3,1.9*3D
$GPGSV,3,1,12,30,72,253,25,05,70,124,43,24,37,082,43,02,36,112,46*77
$GPGSV,3,2,12,04,32,058,29,01,28,306,30,14,25,255,22,06,25,219,00*7E
$GPGSV,3,3,12,17,22,135,41,25,20,311,00,09,19,159,26,20,08,346,40*7F
$GPRMC,104604.584,A,5920.7764,N,01803.2035,E,3.435355,336.78,141204,,*06
$GPGGA,104605.584,5920.7771,N,01803.2027,E,1,05,2.3,44.7,M,23.2,M,0.0,0000*48
$GPGSA,A,3,05,24,17,02,20,,,,,,,,3.0,2.3,1.9*3D
$GPGSV,3,1,12,30,72,253,25,05,70,124,44,24,37,082,40,02,36,112,47*72
$GPGSV,3,2,12,04,32,058,27,01,28,306,30,14,25,255,22,06,25,219,00*70
$GPGSV,3,3,12,17,22,135,40,25,20,311,00,09,19,159,27,20,08,346,39*71
$GPRMC,104605.584,A,5920.7771,N,01803.2027,E,3.369293,335.11,141204,,*09
$GPGGA,104606.584,5920.7779,N,01803.2019,E,1,05,2.3,44.5,M,23.2,M,0.0,0000*4C
$GPGSA,A,3,05,24,17,02,20,,,,,,,,3.0,2.3,1.9*3D
$GPGSV,3,1,12,30,72,253,25,05,70,124,44,24,37,082,41,02,36,112,47*73
$GPGSV,3,2,12,04,32,058,24,01,28,306,30,14,25,255,22,06,25,219,00*73
$GPGSV,3,3,12,17,22,135,41,25,20,311,00,09,19,159,25,20,08,346,38*73
$GPRMC,104606.584,A,5920.7779,N,01803.2019,E,3.413218,337.15,141204,,*00
$GPGGA,104607.584,5920.7787,N,01803.2010,E,1,05,2.3,44.2,M,23.2,M,0.0,0000*42
$GPGSA,A,3,05,24,17,02,20,,,,,,,,3.0,2.3,1.9*3D
$GPGSV,3,1,12,30,72,253,25,05,70,124,43,24,37,082,43,02,36,112,46*77
$GPGSV,3,2,12,04,32,058,24,01,28,306,30,14,25,255,22,06,25,219,00*73
$GPGSV,3,3,12,17,22,135,41,25,20,311,00,09,19,159,24,20,08,346,40*7D
$GPRMC,104607.584,A,5920.7787,N,01803.2010,E,3.530685,329.03,141204,,*01
$GPGGA,104608.584,5920.7794,N,01803.1999,E,1,05,2.3,43.9,M,23.2,M,0.0,0000*48
$GPGSA,A,3,05,24,17,02,20,,,,,,,,3.0,2.3,1.9*3D
$GPGSV,3,1,12,30,72,253,25,05,70,124,43,24,37,082,43,02,36,112,44*75
$GPGSV,3,2,12,04,32,058,33,01,28,306,30,14,25,255,22,06,25,219,00*75
$GPGSV,3,3,12,17,22,135,40,25,20,311,34,09,19,159,24,20,08,346,41*7A
$GPRMC,104608.584,A,5920.7794,N,01803.1999,E,3.552031,322.37,141204,,*06
$GPGGA,104609.584,5920.7801,N,01803.1986,E,1,05,2.3,43.7,M,23.2,M,0.0,0000*4A
$GPGSA,A,3,05,24,17,02,20,,,,,,,,3.0,2.3,1.9*3D
$GPGSV,3,1,12,30,72,253,25,05,70,124,42,24,37,082,42,02,36,112,44*75
$GPGSV,3,2,12,04,32,058,36,01,28,306,28,14,25,255,22,06,25,219,00*79
$GPGSV,3,3,12,17,22,135,39,25,20,311,34,09,19,159,24,20,08,346,37*75
$GPRMC,104609.584,A,5920.7801,N,01803.1986,E,3.456481,322.70,141204,,*03
$GPGGA,104610.584,5920.7808,N,01803.1974,E,1,05,2.3,43.4,M,23.2,M,0.0,0000*45
$GPGSA,A,3,05,24,17,02,20,,,,,,,,3.0,2.3,1.9*3D
$GPGSV,3,1,12,30,72,253,25,05,70,124,43,24,37,082,44,02,36,112,46*70
$GPGSV,3,2,12,04,32,058,39,01,28,306,28,14,25,255,22,06,25,219,00*76
$GPGSV,3,3,12,17,22,135,40,25,20,311,26,09,19,159,24,20,08,346,40*78
$GPRMC,104610.584,A,5920.7808,N,01803.1974,E,3.598357,324.06,141204,,*07
$GPGGA,104611.584,5920.7815,N,01803.1962,E,1,06,1.8,43.3,M,23.2,M,0.0,0000*43
$GPGSA,A,3,05,24,17,30,02,20,,,,,,,2.5,1.8,1.8*33
$GPGSV,3,1,12,30,72,253,38,05,70,124,41,24,37,082,42,02,36,112,45*7B
$GPGSV,3,2,12,04,32,058,45,01,28,306,00,14,25,255,39,06,25,219,00*7D
$GPGSV,3,3,12,17,22,135,40,25,20,311,24,09,19,159,24,20,08,346,39*74
$GPRMC,104611.584,A,5920.7815,N,01803.1962,E,3.304643,329.43,141204,,*02
$GPGGA,104612.584,5920.7823,N,01803.1951,E,1,06,1.8,43.3,M,23.2,M,0.0,0000*45
$GPGSA,A,3,05,24,17,30,02,20,,,,,,,2.5,1.8,1.8*33
$GPGSV,3,1,12,30,72,253,37,05,70,124,43,24,37,082,43,02,37,112,45*76
$GPGSV,3,2,12,04,32,058,44,01,28,306,00,14,25,255,35,06,25,219,00*70
$GPGSV,3,3,12,17,22,135,39,25,20,311,24,09,18,159,24,20,07,346,39*74
$GPRMC,104612.584,A,5920.7823,N,01803.1951,E,3.643515,332.50,141204,,*0A
$GPGGA,104613.584,5920.7831,N,01803.1939,E,1,06,1.8,43.3,M,23.2,M,0.0,0000*49
$GPGSA,A,3,05,24,17,30,02,20,,,,,,,2.5,1.8,1.8*33
$GPGSV,3,1,12,30,72,253,36,05,70,124,43,24,37,082,44,02,37,112,45*70
$GPGSV,3,2,12,04,32,058,45,01,28,306,00,14,25,255,37,06,25,219,00*73
$GPGSV,3,3,12,17,22,135,41,25,20,311,24,09,18,159,24,20,07,346,37*75
$GPRMC,104613.584,A,5920.7831,N,01803.1939,E,3.724668,335.00,141204,,*0D
$GPGGA,104614.583,5920.7840,N,01803.1928,E,1,06,1.8,43.5,M,23.2,M,0.0,0000*49
$GPGSA,A,3,05,24,17,30,02,20,,,,,,,2.5,1.8,1.8*33
$GPGSV,3,1,12,30,72,253,36,05,70,124,42,24,37,082,43,02,37,112,45*76
$GPGSV,3,2,12,04,32,058,44,01,28,306,00,14,25,255,34,06,25,219,00*71
$GPGSV,3,3,12,17,22,135,41,25,20,311,24,09,18,159,24,20,07,346,40*75
$GPRMC,104614.583,A,5920.7840,N,01803.1928,E,3.474361,340.39,141204,,*09
$GPGGA,104615.583,5920.7848,N,01803.1918,E,1,06,1.8,43.6,M,23.2,M,0.0,0000*40
$GPGSA,A,3,05,24,17,30,02,20,,,,,,,2.5,1.8,1.8*33
$GPGSV,3,1,12,30,72,253,39,05,70,124,43,24,37,082,43,02,37,112,44*79
$GPGSV,3,2,12,04,32,058,43,01,28,306,00,14,25,255,37,06,25,219,00*75
$GPGSV,3,3,12,17,22,135,42,25,20,311,24,09,18,159,24,20,07,346,39*78
$GPRMC,104615.583,A,5920.7848,N,01803.1918,E,3.434800,337.32,141204,,*00
$GPGGA,104616.583,5920.7855,N,01803.1907,E,1,06,1.8,43.8,M,23.2,M,0.0,0000*4F
$GPGSA,A,3,05,24,17,30,02,20,,,,,,,2.5,1.8,1.8*33
$GPGSV,3,1,12,30,72,253,38,05,70,124,43,24,37,082,41,02,37,112,43*7D
$GPGSV,3,2,12,04,32,058,39,01,28,306,00,14,25,255,33,06,25,219,00*7C
$GPGSV,3,3,12,17,22,135,40,25,20,311,24,09,18,159,00,20,07,346,36*73
$GPRMC,104616.583,A,5920.7855,N,01803.1907,E,3.240165,332.88,141204,,*0A
$GPGGA,104617.583,5920.7862,N,01803.1897,E,1,06,1.8,43.7,M,23.2,M,0.0,0000*4D
$GPGSA,A,3,05,24,17,30,02,20,,,,,,,2.5,1.8,1.8*33
$GPGSV,3,1,12,30,72,253,38,05,70,124,43,24,37,082,42,02,37,112,43*7E
$GPGSV,3,2,12,04,32,058,43,01,28,306,00,14,25,255,26,06,25,219,00*75
$GPGSV,3,3,12,17,22,135,39,25,20,311,29,09,18,159,00,20,07,346,37*71
$GPRMC,104617.583,A,5920.7862,N,01803.1897,E,3.209688,336.37,141204,,*0E
$GPGGA,104618.583,5920.7869,N,01803.1887,E,1,06,1.8,43.6,M,23.2,M,0.0,0000*49
$GPGSA,A,3,05,24,17,30,02,20,,,,,,,2.5,1.8,1.8*33
$GPGSV,3,1,12,30,72,253,37,05,69,124,45,24,37,082,42,02,37,112,46*7A
$GPGSV,3,2,12,04,32,058,45,01,28,306,00,14,25,255,26,06,25,219,00*73
$GPGSV,3,3,12,17,22,135,40,25,20,311,29,09,18,159,00,20,07,346,37*7F
$GPRMC,104618.583,A,5920.7869,N,01803.1887,E,3.211035,340.43,141204,,*00
$GPGGA,104619.583,5920.7876,N,01803.1880,E,1,06,1.8,43.3,M,23.2,M,0.0,0000*44
$GPGSA,A,3,05,24,17,30,02,20,,,,,,,2.5,1.8,1.8*33
$GPGSV,3,1,12,30,72,253,37,05,69,124,44,24,37,082,43,02,37,112,46*7A
$GPGSV,3,2,12,04,32,058,44,01,28,306,00,14,25,255,26,06,25,219,00*72
$GPGSV,3,3,12,17,22,135,40,25,20,311,29,09,18,159,00,20,07,346,43*7C
$GPRMC,104619.583,A,5920.7876,N,01803.1880,E,3.192311,348.22,141204,,*0A
$GPGGA,104620.583,5920.7883,N,01803.1875,E,1,06,1.8,43.0,M,23.2,M,0.0,0000*4D
$GPGSA,A,3,05,24,17,30,02,20,,,,,,,2.5,1.8,1.8*33
$GPGSV,3,1,12,30,72,253,36,05,69,124,44,24,37,082,43,02,37,112,46*7B
$GPGSV,3,2,12,04,32,058,44,01,28,306,00,14,25,255,26,06,25,219,00*72
$GPGSV,3,3,12,17,22,135,38,25,20,311,29,09,18,159,00,20,07,346,40*70
$GPRMC,104620.583,A,5920.7883,N,01803.1875,E,2.775666,357.51,141204,,*01
$GPGGA,104621.583,5920.7888,N,01803.1872,E,1,06,1.8,42.7,M,23.2,M,0.0,0000*46
$GPGSA,A,3,05,24,17,30,02,20,,,,,,,2.5,1.8,1.8*33
$GPGSV,3,1,12,30,72,253,32,05,69,124,43,24,37,082,45,02,37,112,46*7E
$GPGSV,3,2,12,04,32,058,45,01,28,306,00,14,25,255,26,06,25,219,00*73
$GPGSV,3,3,12,17,22,135,40,25,20,311,29,09,18,159,28,20,07,346,41*74
$GPRMC,104621.583,A,5920.7888,N,01803.1872,E,2.047414,356.64,141204,,*0A
$GPGGA,104622.583,5920.7892,N,01803.1873,E,1,07,1.3,42.5,M,23.2,M,0.0,0000*47
$GPGSA,A,3,05,24,17,09,30,02,20,,,,,,1.9,1.3,1.4*32
$GPGSV,3,1,12,30,72,253,30,05,69,124,45,24,37,082,45,02,37,112,47*7B
$GPGSV,3,2,12,04,32,058,45,01,28,306,00,14,25,255,26,06,25,219,00*73
$GPGSV,3,3,12,17,22,135,40,25,20,311,29,09,18,159,29,20,07,346,38*7B
$GPRMC,104622.583,A,5920.7892,N,01803.1873,E,2.251847,32.14,141204,,*3A
$GPGGA,104623.583,5920.7895,N,01803.1880,E,1,07,1.3,42.0,M,23.2,M,0.0,0000*48
$GPGSA,A,3,05,24,17,09,30,02,20,,,,,,1.9,1.3,1.4*32
$GPGSV,3,1,12,30,72,253,34,05,69,124,45,24,37,082,44,02,37,112,47*7E
$GPGSV,3,2,12,04,32,058,45,01,28,306,33,14,25,255,26,06,25,219,00*73
$GPGSV,3,3,12,17,22,135,39,25,20,311,29,09,18,159,33,20,07,346,32*74
$GPRMC,104623.583,A,5920.7895,N,01803.1880,E,2.776156,47.49,141204,,*33
$GPGGA,104624.583,5920.7898,N,01803.1892,E,1,07,1.3,41.4,M,23.2,M,0.0,0000*46
$GPGSA,A,3,05,24,17,09,30,02,20,,,,,,1.9,1.3,1.4*32
$GPGSV,3,1,12,30,72,253,39,05,69,124,46,24,37,082,44,02,37,112,47*70
$GPGSV,3,2,12,04,32,058,43,01,28,306,29,14,25,255,26,06,25,219,00*7E
$GPGSV,3,3,12,17,22,135,40,25,20,311,29,09,18,159,39,20,07,346,28*7B
$GPRMC,104624.583,A,5920.7898,N,01803.1892,E,3.176802,59.66,141204,,*37
$GPGGA,104625.583,5920.7900,N,01803.1906,E,1,06,3.1,40.8,M,23.2,M,0.0,0000*47
$GPGSA,A,3,05,24,17,09,30,02,,,,,,,5.2,3.1,4.2*3C
$GPGSV,3,1,12,30,72,253,39,05,69,124,45,24,37,082,43,02,37,112,48*7B
$GPGSV,3,2,12,04,32,058,42,01,28,306,29,14,25,255,26,06,25,219,00*7F
$GPGSV,3,3,12,17,22,135,41,25,20,311,29,09,18,159,41,20,07,346,23*7E
$GPRMC,104625.583,A,5920.7900,N,01803.1906,E,3.159898,64.76,141204,,*3B
$GPGGA,104626.583,5920.7902,N,01803.1920,E,1,06,3.1,40.0,M,23.2,M,0.0,0000*4A
$GPGSA,A,3,05,24,17,09,30,02,,,,,,,5.2,3.1,4.2*3C
$GPGSV,3,1,12,30,72,253,39,05,69,124,46,24,37,082,44,02,37,112,47*70
$GPGSV,3,2,12,04,32,058,44,01,28,306,29,14,25,255,00,06,25,219,00*7D
$GPGSV,3,3,12,17,22,135,40,25,20,311,30,09,18,159,40,20,07,346,23*76
$GPRMC,104626.583,A,5920.7902,N,01803.1920,E,3.340934,61.21,141204,,*34
$GPGGA,104627.583,5920.7905,N,01803.1935,E,1,06,3.1,39.4,M,23.2,M,0.0,0000*42
$GPGSA,A,3,05,24,17,09,30,02,,,,,,,5.2,3.1,4.2*3C
$GPGSV,3,1,12,30,72,253,39,05,69,124,46,24,37,082,42,02,37,112,47*76
$GPGSV,3,2,12,04,32,058,43,01,28,306,35,14,25,255,00,06,25,219,42*71
$GPGSV,3,3,12,17,22,135,41,25,20,311,30,09,18,159,42,20,07,346,23*75
$GPRMC,104627.583,A,5920.7905,N,01803.1935,E,3.334158,59.68,141204,,*31
$GPGGA,104628.582,5920.7907,N,01803.1949,E,1,06,3.1,38.7,M,23.2,M,0.0,0000*47
$GPGSA,A,3,05,24,17,09,30,02,,,,,,,5.2,3.1,4.2*3C
$GPGSV,3,1,12,30,72,253,39,05,69,124,46,24,37,082,44,02,37,112,42*75
$GPGSV,3,2,12,04,32,058,43,01,28,306,33,14,25,255,00,06,25,219,41*74
$GPGSV,3,3,12,17,22,135,42,25,20,311,30,09,18,159,41,20,07,346,23*75
$GPRMC,104628.582,A,5920.7907,N,01803.1949,E,3.243699,56.32,141204,,*3D
$GPGGA,104629.582,5920.7911,N,01803.1962,E,1,06,3.1,38.1,M,23.2,M,0.0,0000*4E
$GPGSA,A,3,05,24,17,09,30,02,,,,,,,5.2,3.1,4.2*3C
$GPGSV,3,1,12,30,72,253,40,05,69,124,46,24,37,082,45,02,37,112,35*7A
$GPGSV,3,2,12,04,32,058,45,01,28,306,33,14,25,255,00,06,25,219,42*71
$GPGSV,3,3,12,17,22,135,34,25,20,311,31,09,18,159,38,20,07,346,23*7B
$GPRMC,104629.582,A,5920.7911,N,01803.1962,E,2.806002,51.55,141204,,*3A
$GPGGA,104630.582,5920.7914,N,01803.1974,E,1,06,3.1,37.6,M,23.2,M,0.0,0000*4C
$GPGSA,A,3,05,24,17,09,30,02,,,,,,,5.2,3.1,4.2*3C
$GPGSV,3,1,12,30,72,253,40,05,69,124,46,24,37,082,44,02,37,112,35*7B
$GPGSV,3,2,12,04,32,058,45,01,28,306,32,14,25,255,00,06,25,219,43*71
$GPGSV,3,3,12,17,22,135,31,25,20,311,31,09,18,159,41,20,07,346,23*70
$GPRMC,104630.582,A,5920.7914,N,01803.1974,E,3.205773,57.80,141204,,*37
$GPGGA,104631.582,5920.7917,N,01803.1988,E,1,04,3.4,37.2,M,23.2,M,0.0,0000*4E
$GPGSA,A,3,05,24,09,30,,,,,,,,,5.6,3.4,4.4*3F
$GPGSV,3,1,12,30,72,253,39,05,69,124,46,24,37,082,45,02,37,112,32*73
$GPGSV,3,2,12,04,32,058,45,01,28,306,31,14,25,255,00,06,25,219,41*70
$GPGSV,3,3,12,17,22,135,27,25,20,311,31,09,18,159,41,20,07,346,23*77
$GPRMC,104631.582,A,5920.7917,N,01803.1988,E,3.433295,57.52,141204,,*37
$GPGGA,104632.582,5920.7921,N,01803.2002,E,1,05,3.1,37.1,M,23.2,M,0.0,0000*47
$GPGSA,A,3,05,24,09,30,02,,,,,,,,5.2,3.1,4.2*3A
$GPGSV,3,1,12,30,72,253,40,05,69,124,46,24,37,082,43,02,37,112,30*79
$GPGSV,3,2,12,04,32,058,43,01,28,306,29,14,25,255,00,06,25,219,41*7F
$GPGSV,3,3,12,17,22,135,27,25,20,311,30,09,18,159,40,20,07,346,23*77
$GPRMC,104632.582,A,5920.7921,N,01803.2002,E,3.333683,56.95,141204,,*37
$GPGGA,104633.582,5920.7925,N,01803.2016,E,1,05,3.1,37.0,M,23.2,M,0.0,0000*46
$GPGSA,A,3,05,24,09,30,02,,,,,,,,5.2,3.1,4.2*3A
$GPGSV,3,1,12,30,72,253,40,05,69,124,46,24,37,082,44,02,37,112,34*7A
$GPGSV,3,2,12,04,32,058,43,01,28,306,27,14,25,255,00,06,25,219,41*71
$GPGSV,3,3,12,17,22,135,27,25,20,311,31,09,18,159,40,20,07,346,23*76
$GPRMC,104633.582,A,5920.7925,N,01803.2016,E,3.513867,57.65,141204,,*39
$GPGGA,104634.582,5920.7928,N,01803.2031,E,1,05,3.1,37.0,M,23.2,M,0.0,0000*49
$GPGSA,A,3,05,24,09,30,02,,,,,,,,5.2,3.1,4.2*3A
$GPGSV,3,1,12,30,72,253,41,05,69,124,46,24,37,082,44,02,37,112,31*7E
$GPGSV,3,2,12,04,32,058,40,01,28,306,29,14,25,255,00,06,25,219,41*7C
$GPGSV,3,3,12,17,22,135,27,25,20,311,31,09,18,159,39,20,07,346,00*79
$GPRMC,104634.582,A,5920.7928,N,01803.2031,E,3.396633,74.76,141204,,*31
$GPGGA,104635.582,5920.7928,N,01803.2049,E,1,05,3.1,37.0,M,23.2,M,0.0,0000*47
$GPGSA,A,3,05,24,09,30,02,,,,,,,,5.2,3.1,4.2*3A
$GPGSV,3,1,12,30,72,253,42,05,69,124,45,24,37,082,43,02,37,112,30*78
$GPGSV,3,2,12,04,32,058,36,01,28,306,35,14,25,255,00,06,25,219,40*71
$GPGSV,3,3,12,17,22,135,27,25,20,311,34,09,18,159,39,20,07,346,00*7C
$GPRMC,104635.582,A,5920.7928,N,01803.2049,E,3.582971,87.21,141204,,*3B
$GPGGA,104636.582,5920.7928,N,01803.2066,E,1,05,2.5,37.4,M,23.2,M,0.0,0000*48
$GPGSA,A,3,05,04,24,09,30,,,,,,,,4.0,2.5,3.1*3E
$GPGSV,3,1,12,30,73,253,42,05,69,124,46,24,37,082,43,02,37,112,27*7C
$GPGSV,3,2,12,04,32,058,36,01,28,306,35,06,25,219,39,14,25,255,00*7F
$GPGSV,3,3,12,17,22,135,27,25,21,311,35,09,18,159,32,20,07,345,00*74
$GPRMC,104636.582,A,5920.7928,N,01803.2066,E,3.294186,81.61,141204,,*37
$GPGGA,104637.582,5920.7929,N,01803.2082,E,1,06,2.1,37.9,M,23.2,M,0.0,0000*48
$GPGSA,A,3,05,04,24,09,30,02,,,,,,,3.5,2.1,2.8*32
$GPGSV,3,1,12,30,73,253,42,05,69,124,46,24,37,082,44,02,37,112,31*7C
$GPGSV,3,2,12,04,32,058,37,01,28,306,29,06,25,219,39,14,25,255,00*73
$GPGSV,3,3,12,17,22,135,27,25,21,311,33,09,18,159,29,20,07,345,00*78
$GPRMC,104637.582,A,5920.7929,N,01803.2082,E,3.121771,75.26,141204,,*36
$GPGGA,104638.582,5920.7931,N,01803.2098,E,1,04,3.4,38.2,M,23.2,M,0.0,0000*47
$GPGSA,A,3,05,24,09,30,,,,,,,,,5.6,3.4,4.4*3F
$GPGSV,3,1,12,30,73,253,41,05,69,124,46,24,37,082,45,02,37,112,26*78
$GPGSV,3,2,12,04,32,058,35,01,28,306,32,06,25,219,39,14,25,255,00*7B
$GPGSV,3,3,12,17,22,135,27,25,21,311,30,09,18,159,31,20,07,345,00*72
$GPRMC,104638.582,A,5920.7931,N,01803.2098,E,3.262798,79.49,141204,,*3D
$GPGGA,104639.582,5920.7933,N,01803.2114,E,1,06,2.1,38.6,M,23.2,M,0.0,0000*43
$GPGSA,A,3,05,04,24,09,30,02,,,,,,,3.5,2.1,2.8*32
$GPGSV,3,1,12,30,73,253,41,05,69,124,45,24,37,082,44,02,37,112,28*74
$GPGSV,3,2,12,04,32,058,32,01,28,306,34,06,25,219,38,14,25,255,00*7B
$GPGSV,3,3,12,17,22,135,27,25,21,311,28,09,18,159,30,20,07,345,00*7A
$GPRMC,104639.582,A,5920.7933,N,01803.2114,E,3.314980,61.55,141204,,*38
$GPGGA,104640.582,5920.7937,N,01803.2129,E,1,05,2.5,38.9,M,23.2,M,0.0,0000*4F
$GPGSA,A,3,05,04,24,09,30,,,,,,,,4.0,2.5,3.1*3E
$GPGSV,3,1,12,30,73,253,40,05,69,124,46,24,37,082,44,02,37,112,27*79
$GPGSV,3,2,12,04,32,058,35,01,28,306,30,06,25,219,37,14,25,255,00*77
$GPGSV,3,3,12,17,22,135,00,25,21,311,26,09,18,159,38,20,07,345,00*79
$GPRMC,104640.582,A,5920.7937,N,01803.2129,E,3.009560,70.58,141204,,*3C
$GPGGA,104641.582,5920.7941,N,01803.2143,E,1,06,2.1,39.3,M,23.2,M,0.0,0000*4F
$GPGSA,A,3,05,04,24,09,30,02,,,,,,,3.5,2.1,2.8*32
$GPGSV,3,1,12,30,73,253,40,05,69,124,46,24,37,082,43,02,37,112,28*71
$GPGSV,3,2,12,04,32,058,38,01,28,306,33,06,25,219,37,14,25,255,00*79
$GPGSV,3,3,12,17,22,135,00,25,21,311,27,09,18,159,30,20,07,345,00*70
$GPRMC,104641.582,A,5920.7941,N,01803.2143,E,3.133305,65.47,141204,,*37
$GPGGA,104642.581,5920.7946,N,01803.2158,E,1,05,3.4,40.0,M,23.2,M,0.0,0000*48
$GPGSA,A,3,05,04,24,30,02,,,,,,,,7.4,3.4,6.6*30
$GPGSV,3,1,12,30,73,252,40,05,69,124,46,24,37,082,43,02,37,112,29*71
$GPGSV,3,2,12,04,32,058,37,01,28,306,31,06,25,219,39,14,25,255,35*7C
$GPGSV,3,3,12,17,22,135,00,25,21,311,27,09,18,159,25,20,07,345,00*74
$GPRMC,104642.581,A,5920.7946,N,01803.2158,E,3.138018,70.91,141204,,*31
$GPGGA,104643.581,5920.7950,N,01803.2174,E,1,04,8.2,40.4,M,23.2,M,0.0,0000*48
$GPGSA,A,3,05,04,24,30,,,,,,,,,17.1,8.2,15.0*3F
$GPGSV,3,1,12,30,73,252,41,05,69,124,46,24,37,082,44,02,37,112,24*7A
$GPGSV,3,2,12,04,32,058,36,01,28,306,29,06,25,219,41,14,25,255,38*76
$GPGSV,3,3,12,17,22,135,00,25,21,311,29,09,18,159,25,20,07,345,00*7A
$GPRMC,104643.581,A,5920.7950,N,01803.2174,E,3.189347,69.26,141204,,*3E
$GPGGA,104644.581,5920.7953,N,01803.2190,E,1,04,8.2,40.7,M,23.2,M,0.0,0000*45
$GPGSA,A,3,05,04,24,30,,,,,,,,,17.1,8.2,15.0*3F
$GPGSV,3,1,12,30,73,252,41,05,69,124,45,24,37,082,43,02,37,112,26*7C
$GPGSV,3,2,12,04,32,058,37,01,28,306,29,06,25,219,41,14,25,255,40*78
$GPGSV,3,3,12,17,22,135,00,25,21,311,27,09,18,159,25,20,07,345,00*74
$GPRMC,104644.581,A,5920.7953,N,01803.2190,E,3.134232,69.87,141204,,*3E
$GPGGA,104645.581,5920.7959,N,01803.2206,E,1,05,3.4,41.3,M,23.2,M,0.0,0000*4B
$GPGSA,A,3,05,04,24,30,02,,,,,,,,7.4,3.4,6.6*30
$GPGSV,3,1,12,30,73,252,40,05,69,124,45,24,37,082,43,02,37,112,28*73
$GPGSV,3,2,12,04,32,058,40,01,28,306,32,06,25,219,40,14,25,255,38*7C
$GPGSV,3,3,12,17,22,135,00,25,21,311,28,09,18,159,25,20,07,345,00*7B
$GPRMC,104645.581,A,5920.7959,N,01803.2206,E,3.151504,63.46,141204,,*3F
$GPGGA,104646.581,5920.7964,N,01803.2221,E,1,05,3.4,41.7,M,23.2,M,0.0,0000*47
$GPGSA,A,3,05,04,24,30,02,,,,,,,,7.4,3.4,6.6*30
$GPGSV,3,1,12,30,73,252,40,05,69,124,46,24,37,082,44,02,37,112,34*7A
$GPGSV,3,2,12,04,32,058,38,01,28,306,31,06,25,219,40,14,25,255,39*71
$GPGSV,3,3,12,17,22,135,00,25,21,311,28,09,18,159,25,20,07,345,00*7B
$GPRMC,104646.581,A,5920.7964,N,01803.2221,E,3.168141,61.83,141204,,*33
$GPGGA,104647.581,5920.7968,N,01803.2237,E,1,04,8.3,42.1,M,23.2,M,0.0,0000*45
$GPGSA,A,3,05,04,24,30,,,,,,,,,17.2,8.3,15.0*3D
$GPGSV,3,1,12,30,73,252,38,05,69,124,46,24,37,082,43,02,37,112,22*75
$GPGSV,3,2,12,04,32,058,33,01,28,306,32,06,25,219,40,14,25,255,36*76
$GPGSV,3,3,12,17,22,135,00,25,21,311,30,09,18,159,25,20,07,345,00*72
$GPRMC,104647.581,A,5920.7968,N,01803.2237,E,3.125339,66.79,141204,,*3F
$GPGGA,104648.581,5920.7972,N,01803.2250,E,1,04,8.3,42.4,M,23.2,M,0.0,0000*45
$GPGSA,A,3,05,04,24,30,,,,,,,,,17.2,8.3,15.1*3C
$GPGSV,3,1,12,30,73,252,31,05,69,124,46,24,37,082,44,02,37,112,25*7C
$GPGSV,3,2,12,04,32,058,35,01,28,306,35,06,25,219,41,14,25,255,36*76
$GPGSV,3,3,12,17,23,135,00,25,21,311,29,09,18,159,25,20,07,345,00*7B
$GPRMC,104648.581,A,5920.7972,N,01803.2250,E,2.470944,61.71,141204,,*31
$GPGGA,104649.581,5920.7975,N,01803.2261,E,1,04,8.3,42.6,M,23.2,M,0.0,0000*43
$GPGSA,A,3,05,04,24,30,,,,,,,,,17.2,8.3,15.1*3C
$GPGSV,3,1,12,30,73,252,37,05,69,124,47,24,37,082,44,02,37,112,22*7C
$GPGSV,3,2,12,04,32,058,31,01,28,306,31,06,25,219,39,14,25,255,35*7A
$GPGSV,3,3,12,17,23,135,00,25,21,311,29,09,18,159,25,20,07,345,00*7B
$GPRMC,104649.581,A,5920.7975,N,01803.2261,E,1.915359,64.76,141204,,*3C
$GPGGA,104650.581,5920.7980,N,01803.2269,E,1,05,3.4,43.4,M,23.2,M,0.0,0000*47
$GPGSA,A,3,05,04,24,30,02,,,,,,,,7.4,3.4,6.6*30
$GPGSV,3,1,12,30,73,252,37,05,69,124,47,24,37,082,43,02,37,112,29*70
$GPGSV,3,2,12,04,32,058,38,01,28,306,33,06,25,219,38,14,25,255,36*73
$GPGSV,3,3,12,17,23,135,00,25,21,311,29,09,18,159,00,20,07,345,00*7C
$GPRMC,104650.581,A,5920.7980,N,01803.2269,E,2.306496,27.35,141204,,*39
$GPGGA,104651.581,5920.7985,N,01803.2279,E,1,04,8.3,43.8,M,23.2,M,0.0,0000*43
$GPGSA,A,3,05,04,24,30,,,,,,,,,17.2,8.3,15.1*3C
$GPGSV,3,1,12,30,73,252,37,05,69,124,46,24,37,082,45,02,37,112,27*79
$GPGSV,3,2,12,04,32,058,36,01,28,306,29,06,25,219,39,14,25,255,37*76
$GPGSV,3,3,12,17,23,135,00,25,21,311,32,09,18,159,00,20,07,345,00*76
$GPRMC,104651.581,A,5920.7985,N,01803.2279,E,2.307838,59.14,141204,,*3F
$GPGGA,104652.581,5920.7988,N,01803.2291,E,1,04,8.3,44.1,M,23.2,M,0.0,0000*45
$GPGSA,A,3,05,04,24,30,,,,,,,,,17.3,8.3,15.1*3D
$GPGSV,3,1,12,30,73,252,36,05,69,124,47,24,37,082,45,02,37,112,21*7F
$GPGSV,3,2,12,04,32,058,36,01,28,306,30,06,25,219,40,14,25,255,36*71
$GPGSV,3,3,12,17,23,135,00,25,21,311,33,09,18,159,00,20,07,345,00*77
$GPRMC,104652.581,A,5920.7988,N,01803.2291,E,2.470948,60.14,141204,,*3C
$GPGGA,104653.581,5920.7991,N,01803.2304,E,1,05,3.4,45.1,M,23.2,M,0.0,0000*4D
$GPGSA,A,3,05,04,24,30,02,,,,,,,,7.4,3.4,6.6*30
$GPGSV,3,1,12,30,73,252,36,05,69,124,46,24,37,082,45,02,37,112,29*76
$GPGSV,3,2,12,04,32,058,35,01,28,306,31,06,25,219,39,14,25,255,37*7C
$GPGSV,3,3,12,17,23,135,00,25,21,311,31,09,18,159,00,20,07,345,00*75
$GPRMC,104653.581,A,5920.7991,N,01803.2304,E,1.899090,95.14,141204,,*36
$GPGGA,104654.581,5920.7992,N,01803.2312,E,1,05,3.4,45.9,M,23.2,M,0.0,0000*46
$GPGSA,A,3,05,04,24,30,02,,,,,,,,7.4,3.4,6.6*30
